GHGRP FACILITY ID,FRS ID (FACILITY),REPORTING YEAR,FACILITY NAME,FACILITY ADDRESS,FACILITY CITY,FACILITY STATE,FACILITY ZIP,FACILITY COUNTY,PARENT COMPANY NAME,PARENT CO. STREET ADDRESS,PARENT CO. CITY,PARENT CO. STATE,PARENT CO. ZIP,PARENT CO. PERCENT OWNERSHIP,FACILITY NAICS CODE,Facility Id,Latitude,Longitude,_source_sheet,owner
1000011.0,110000807379.0,2023.0,Central Hudson Gas and Electric Corporation,284 South Avenue,Poughkeepsie,NY,12601,DUTCHESS COUNTY,CENTRAL HUDSON GAS & ELECTRIC CORP,284 South Avenue,Poughkeepsie,NY,12601,100.0,221122.0,1000011,41.690648,-73.931605,LDC - Direct Emissions,other
1000054.0,110071160313.0,2023.0,City of Tallahassee Natural Gas Utility,2602 Jackson Bluff Road,Tallahassee,FL,32304,LEON COUNTY,CITY OF TALLAHASSEE FLORIDA,300 South Adams Street,Tallahassee,FL,32301,100.0,221210.0,1000054,30.438668,-84.332457,LDC - Direct Emissions,other
1000064.0,110000516834.0,2023.0,LONE STAR GAS LIQUIDS,19430 BEECH AVENUE,SHAFTER,CA,93263,KERN COUNTY,PLAINS GP HOLDINGS LP,"333 Clay Street, Ste. 1600",Houston,TX,77002,100.0,211130.0,1000064,35.447778,-119.26,Direct Point Emitters,other
1000091.0,110071159598.0,2023.0,Norwich,16 S GOLDEN ST,NORWICH,CT,6360,New London,CITY OF NORWICH CONNECTICUT,16 South Golden St,Norwich,CT,06360,100.0,221210.0,1000091,41.5269,-72.0631,LDC - Direct Emissions,other
1000205.0,110071161799.0,2023.0,Okaloosa Gas District,364 Valparaiso Pkwy,Valparaiso,FL,32580,OKALOOSA COUNTY,OKALOOSA GAS DISTRICT,364 Valparaiso Pky,Valparaiso,FL,32580,100.0,221210.0,1000205,30.50967,-86.49619,LDC - Direct Emissions,other
1000355.0,,2023.0,(540) Civitas Resources - Denver Basin,555 17th St. Suite 3700,Denver,CO,80202,,CIVITAS RESOURCES INC,555 17TH Street Suite 3700,Denver,CO,80202,100.0,211120.0,1000355,39.74431,-104.98858,Onshore Oil & Gas Prod.,other
1000388.0,110071160900.0,2023.0,Middleborough Gas & Electric Department,32 South Main St.,Middleborough,MA,2346,PLYMOUTH COUNTY,TOWN OF MIDDLEBOROUGH MASSACHUSETTS,32 South Main Street,Middleborough,MA,02346,100.0,221210.0,1000388,41.89142,-70.91059,LDC - Direct Emissions,other
1000435.0,,2023.0,Merit Energy Co. South Texas 220 Gulf Coast Basin,"13727 Noel Road, Suite 1200",Dallas,TX,75240,,MERIT ENERGY CO LLC,"13727 Noel Road, Suite 500",Dallas,TX,75240,100.0,211130.0,1000435,26.19857,-98.22361,Onshore Oil & Gas Prod.,other
1000600.0,110071160542.0,2023.0,UNS Gas,"2901 W. Shamrell Blvd., Suite 110",Flagstaff,AZ,86001,COCONINO COUNTY,UNS ENERGY CORP,88 East Broadway Blvd.,Tucson,AZ,85701,100.0,221210.0,1000600,35.13778,-111.68052,LDC - Direct Emissions,other
1001088.0,110071159558.0,2023.0,Energy Services of Pensacola,1625 Atwood Dr,Pensacola,FL,32514,ESCAMBIA COUNTY,CITY OF PENSACOLA FLORIDA,1625 Atwood Dr,Pensacola,FL,32514,100.0,221210.0,1001088,30.50515,-87.22575,LDC - Direct Emissions,other
1001123.0,110071160813.0,2023.0,Jasper Municipal Gas Utility,825 E. 2nd Ave,Jasper,IN,47547,DUBOIS COUNTY,CITY OF JASPER INDIANA,610 Main Street,Jasper,IN,47547-0029,100.0,221210.0,1001123,38.39,-86.93,LDC - Direct Emissions,other
1001132.0,110015736907.0,2023.0,BLOCK 31 GAS PLANT,1501 FM 1601,CRANE,TX,79731,CRANE COUNTY,OCCIDENTAL PETROLEUM CORP,"5 Greenway Plaza, Suite 110",Houston,TX,77046,100.0,211120.0,1001132,31.6467,-102.52869,Direct Point Emitters,other
1001251.0,110071159599.0,2023.0,ILLINOIS GAS COMPANY,1927 MILLER DR,OLNEY,IL,62450,RICHLAND COUNTY,ILLINOIS GAS CO,"1927 Miller Dr., Po Box 490",Olney,IL,62450,100.0,221210.0,1001251,38.703671,-88.086588,LDC - Direct Emissions,other
1001277.0,110071159601.0,2023.0,NSTAR Gas Company,1 NSTAR Way,Westwood,MA,2090,NORFOLK COUNTY,EVERSOURCE ENERGY,P.O. Box 270,Hartford,CT,06141,100.0,221210.0,1001277,42.20446,-71.15937,LDC - Direct Emissions,other
1001286.0,110067022518.0,2023.0,Milagro Gas Plant,"1754 Arroyo Dr,",BLOOMFIELD,NM,87413,San Juan,HARVEST PIPELINE CO,1111 Travis St.,Houston,TX,77002,100.0,211130.0,1001286,36.7367,-107.9417,Direct Point Emitters,other
1001388.0,110071162238.0,2023.0,Atmos Energy Corporation - Kansas,5430 LBJ Freeway,Dallas,TX,75240,DALLAS COUNTY,ATMOS ENERGY CORP,5430 Lbj Freeway,Dallas,TX,75240,100.0,221210.0,1001388,32.925488,-96.816137,LDC - Direct Emissions,other
1001389.0,110043973153.0,2023.0,Atmos Energy Corporation - Kentucky,5430 LBJ Freeway,Dallas,TX,75240,DALLAS COUNTY,ATMOS ENERGY CORP,5430 Lbj Freeway,Dallas,TX,75240,100.0,221210.0,1001389,32.92548,-96.81613,LDC - Direct Emissions,other
1001390.0,110043973153.0,2023.0,Atmos Energy Corporation - Louisiana,5430 LBJ Freeway,Dallas,TX,75240,DALLAS COUNTY,ATMOS ENERGY CORP,5430 Lbj Freeway,Dallas,TX,75240,100.0,221210.0,1001390,32.92548,-96.81613,LDC - Direct Emissions,other
1001391.0,110071159496.0,2023.0,Atmos Energy Corporation - Mississippi,5430 LBJ Freeway,Dallas,TX,75240,DALLAS COUNTY,ATMOS ENERGY CORP,5430 Lbj Freeway,Dallas,TX,75240,100.0,221210.0,1001391,32.925488,-96.816137,LDC - Direct Emissions,other
1001398.0,110071159497.0,2023.0,Atmos Energy Corporation - Texas,5430 LBJ Freeway,Dallas,TX,75240,DALLAS COUNTY,ATMOS ENERGY CORP,5430 Lbj Freeway,Dallas,TX,75240,100.0,221210.0,1001398,32.925488,-96.816137,LDC - Direct Emissions,other
1001402.0,110071159498.0,2023.0,Atmos Energy Corporation- Virginia,5430 LBJ Freeway,Dallas,TX,75240,DALLAS COUNTY,ATMOS ENERGY CORP,5430 Lbj Freeway,Dallas,TX,75240,100.0,221210.0,1001402,32.925488,-96.816137,LDC - Direct Emissions,other
1001582.0,110071162330.0,2023.0,Piedmont Natural Gas - South Carolina,4720 Piedmont Row Drive,Charlotte,NC,28210,MECKLENBURG COUNTY,DUKE ENERGY CORP,525 S Tryon Street,Charlotte,NC,28202,100.0,221210.0,1001582,35.15187,-80.83978,LDC - Direct Emissions,other
1001583.0,110043972387.0,2023.0,Piedmont Natural Gas - North Carolina,4720 Piedmont Row Drive,Charlotte,NC,28210,MECKLENBURG COUNTY,DUKE ENERGY CORP,525 S Tryon Street,Charlotte,NC,28202,100.0,221210.0,1001583,35.15187,-80.83978,LDC - Direct Emissions,other
1001589.0,110071161194.0,2023.0,Cana Gas Plant,,Calumet,OK,73014,CANADIAN COUNTY,ENLINK MIDSTREAM LLC,"1722 Routh Street, Suite 1300",Dallas,TX,75201,100.0,211130.0,1001589,35.535,-98.099,Direct Point Emitters,other
1001626.0,110071159537.0,2023.0,New Mexico Gas Company,7120 Wyoming Blvd. NE Ste. 20,Albuquerque,NM,87109,BERNALILLO COUNTY,TECO ENERGY INC,702 N Franklin Street,Tampa,FL,33602,100.0,221210.0,1001626,35.15927,-106.55982,LDC - Direct Emissions,other
1001628.0,110070081799.0,2023.0,LISBURNE PRODUCTION CENTER,,Prudhoe Bay,AK,99734,NORTH SLOPE BOROUGH,HILCORP ENERGY CO,1111 Travis Street,Houston,TX,77002,100.0,211120.0,1001628,70.286333,-148.43397,Direct Point Emitters,other
1001635.0,110071159540.0,2023.0,Waynoka Gas Plant,,ALVA,OK,73717,WOODS COUNTY,TARGA RESOURCES CORP,"811 Louisiana Street, Suite 2100",Houston,TX,77002,100.0,211130.0,1001635,36.6526,-98.7673,Direct Point Emitters,TARGA RESOURCES CORP
1001638.0,110043792429.0,2023.0,Midkiff Gas Plant,17400 E FM 2401,MIDKIFF,TX,79755,UPTON COUNTY,PIONEER NATURAL RESOURCES CO,5205 N. O’Connor Blvd. Ste. 200,Irving,TX,75039,27.0,211130.0,1001638,31.502598,-101.911987,Direct Point Emitters,TARGA RESOURCES CORP
1001649.0,110067215882.0,2023.0,CENTRAL COMPRESSOR PLANT,,Prudhoe Bay,AK,99734,NORTH SLOPE BOROUGH,HILCORP ENERGY CO,1111 Travis Street,Houston,TX,77002,100.0,211120.0,1001649,70.320033,-148.500179,Direct Point Emitters,other
1001650.0,110067215864.0,2023.0,CENTRAL GAS FACILITY,,Prudhoe Bay,AK,99734,NORTH SLOPE BOROUGH,HILCORP ENERGY CO,1111 Travis Street,Houston,TX,77002,100.0,211120.0,1001650,70.320628,-148.52129,Direct Point Emitters,other
1001688.0,110071160157.0,2023.0,Spire Mississippi,1614 West 4th Street,Hattiesburg,MS,39401,FORREST COUNTY,SPIRE INC,700 Market Street,Saint Louis,MO,63101,100.0,221210.0,1001688,31.214868,-89.284725,LDC - Direct Emissions,other
1001737.0,110008972594.0,2023.0,ENDICOTT PRODUCTION FACILITY,,Prudhoe Bay,AK,99734,NORTH SLOPE BOROUGH,HILCORP ENERGY CO,1111 Travis St,Houston,TX,77002,100.0,211130.0,1001737,70.356789,-147.959766,Direct Point Emitters,other
1001738.0,110071159544.0,2023.0,Duke Energy Kentucky Gas Operation,139 East Fourth St.,Cincinnati,OH,45201,HAMILTON COUNTY,DUKE ENERGY CORP,525 S Tryon Street,Charlotte,NC,28202,100.0,221210.0,1001738,39.106635,-84.536323,LDC - Direct Emissions,other
1001760.0,110071159542.0,2023.0,Arkansas Loop & Simpson Treating Plants,,DURANGO,CO,81303,LA PLATA COUNTY,KINDER MORGAN INC,"1001 Louisiana St, Suite 1000",Houston,TX,77002,49.0,211130.0,1001760,37.0532,-107.7855,Direct Point Emitters,KINDER MORGAN INC
1001790.0,110043811907.0,2023.0,Hilight-Reno Junction Gas Plant,,Gillette,WY,82716,CAMPBELL COUNTY,WESTERN MIDSTREAM PARTNERS LP,9950 Woodloch Forest Drive,The Woodlands,TX,77380,100.0,211130.0,1001790,43.8414763490387,-105.362308513496,Direct Point Emitters,other
1001805.0,110009454964.0,2023.0,SEA ROBIN GAS PROCESSING PLANT,5627 ARISTIDE ROAD,ERATH,LA,70533,VERMILION PARISH,TARGA RESOURCES CORP,"811 Louisiana Street, Suite 2100",Houston,TX,77002,0.84,211130.0,1001805,29.897429,-92.067346,Direct Point Emitters,TARGA RESOURCES CORP
1001806.0,110033349552.0,2023.0,SEMINOLE GAS PROCESSING PLANT,3.5 MI NW ON SH 214,SEMINOLE,TX,79360,GAINES COUNTY,OCCIDENTAL PETROLEUM CORP,5 Greenway Plaza,Houston,TX,77046,100.0,211120.0,1001806,32.7578,-102.681,Direct Point Emitters,other
1001871.0,110071160617.0,2023.0,Granger Gas Plant,,GRANGER,WY,82934,SWEETWATER COUNTY,OCCIDENTAL PETROLEUM CORP,"5 Greenway Plaza, Suite 110",Houston,TX,77046,100.0,211130.0,1001871,41.5394,-109.9557,Direct Point Emitters,other
1001894.0,110014004273.0,2023.0,TIOGA GAS PROCESSING PLANT,10340 68TH STREET NORTHWEST,TIOGA,ND,58852,WILLIAMS COUNTY,HESS CORP,1501 McKinney Street,Houston,TX,77010,100.0,211130.0,1001894,48.400278,-102.917778,Direct Point Emitters,other
1001917.0,110071160959.0,2023.0,WASHINGTON GAS LIGHT COMPANY,6801 INDUSTRIAL ROAD,SPRINGFIELD,VA,22151,FAIRFAX COUNTY,ALTAGAS SERVICES (US) INC,"1411 3Rd Street, Suite A",Port Huron,MI,48060,100.0,221210.0,1001917,38.79844,-77.1793,LDC - Direct Emissions,other
1001966.0,110071159549.0,2023.0,The Peoples Gas Light and Coke Company,200 East Randolph Street,CHICAGO,IL,60601,COOK COUNTY,WEC Energy Group Inc,231 W. Michigan St.,Milwaukee,WI,53203,100.0,221210.0,1001966,41.88448,-87.62312,LDC - Direct Emissions,other
1001977.0,110071159505.0,2023.0,Fort Lupton Compressor Station,,Brighton,CO,80601,WELD COUNTY,WESTERN MIDSTREAM PARTNERS LP,9950 Woodloch Forest Drive,The Woodlands,TX,77380,100.0,211130.0,1001977,40.1434,-104.7515,Direct Point Emitters,other
1002025.0,110071161924.0,2023.0,Wisconsin Power & Light Gas Distribution,4902 North Biltmore Lane,Madison,WI,53718,DANE COUNTY,ALLIANT ENERGY CORP,4902 N. Biltmore Lane,Madison,WI,53718,100.0,221210.0,1002025,43.15217,-89.29536,LDC - Direct Emissions,other
1002029.0,110007181575.0,2023.0,WILCOX GAS PLANT,404 Private Road 1045,Hallettsville,TX,77964,LAVACA COUNTY,PHILLIPS 66,2331 Citywest Blvd,Houston,TX,77042,86.8,211130.0,1002029,29.336389,-96.679882,Direct Point Emitters,PHILLIPS 66
1002030.0,110010099339.0,2023.0,MOBILE BAY NGL RECOVERY PLANT,5300B HIGHWAY 188,CODEN,AL,36523,MOBILE COUNTY,PHILLIPS 66,2331 Citywest Blvd,Houston,TX,77042,86.8,211130.0,1002030,30.38948,-88.17295,Direct Point Emitters,PHILLIPS 66
1002031.0,110015910031.0,2023.0,ROGGEN GAS PLANT,35409 WELD COUNTY ROAD 18,ROGGEN,CO,80652,WELD COUNTY,PHILLIPS 66,2331 Citywest Blvd,Houston,TX,77042,86.8,211130.0,1002031,40.117556,-104.387444,Direct Point Emitters,PHILLIPS 66
1002066.0,110007196051.0,2023.0,GIDDINGS GAS PLANT,,LA GRANGE,TX,78945,FAYETTE COUNTY,PHILLIPS 66,2331 Citywest Blvd,Houston,TX,77042,86.8,211130.0,1002066,30.0383,-96.9872,Direct Point Emitters,PHILLIPS 66
1002078.0,110071162169.0,2023.0,Opal Gas Plant,,OPAL,WY,83124,LINCOLN COUNTY,THE WILLIAMS COS INC,1 Williams Center,Tulsa,OK,74172,100.0,211130.0,1002078,41.7767,-110.3425,Direct Point Emitters,THE WILLIAMS COS INC
1002150.0,110071162292.0,2023.0,Shute Creek Facility,,KEMMERER,WY,83101,LINCOLN COUNTY,EXXON MOBIL CORP,5959 Las Colinas Blvd,Irving,TX,75039,100.0,211130.0,1002150,41.887,-110.09446,Direct Point Emitters,EXXON MOBIL CORP
1002151.0,110071161778.0,2023.0,Interstate Power & Light Gas Distribution,200 1st Street SE,Cedar Rapids,IA,52401,LINN COUNTY,ALLIANT ENERGY CORP,4902 North Biltmore Lane,Madison,WI,53718,100.0,221210.0,1002151,41.97704,-91.66872,LDC - Direct Emissions,other
1002169.0,110017348226.0,2023.0,Brookeland Gas Plant,428 County Road 200,Brookeland,TX,75931,JASPER COUNTY,ENERGY TRANSFER LP,"8111 Westchester Dr, Suite 600",Dallas,TX,75225,100.0,486210.0,1002169,31.06255,-93.961116,Direct Point Emitters,ENERGY TRANSFER LP
1002174.0,110043789969.0,2023.0,Chipeta Gas Plant,,Vernal,UT,84078,UINTAH COUNTY,WESTERN MIDSTREAM PARTNERS LP,9950 Woodloch Forest Drive,The Woodlands,TX,77380,100.0,211130.0,1002174,40.0344,-109.4289,Direct Point Emitters,other
1002195.0,110043795408.0,2023.0,Sneed Booster Station,,Dumas,TX,79029,MOORE COUNTY,IACX ENERGY LLC,"5001 Lbj Freeway, Suite 300",Dallas,TX,75244,100.0,211130.0,1002195,35.8117,-101.6294,Direct Point Emitters,other
1002199.0,110071161779.0,2023.0,NORTHWESTERN ENERGY/GTS,11 E. Park,BUTTE,MT,59701,SILVER BOW COUNTY,NORTHWESTERN CORP,3010 W 69Th Street,Sioux Falls,SD,57108,100.0,486210.0,1002199,46.013787,-112.534853,LDC - Direct Emissions,other
1002214.0,110043783625.0,2023.0,WILLIAMS MOBILE BAY GAS PROCESSING FACILITY,6000 ROCK ROAD,CODEN,AL,36523,MOBILE COUNTY,THE WILLIAMS COS INC,1 Williams Center,Tulsa,OK,74172,100.0,211130.0,1002214,30.400556,-88.177222,Direct Point Emitters,THE WILLIAMS COS INC
1002220.0,110071161718.0,2023.0,Intermountain Gas Company,555 S. Cole Road,Boise,ID,83709,ADA COUNTY,MDU RESOURCES GROUP INC,1200 West Century Avenue,Bismarck,ND,58503,100.0,221210.0,1002220,43.59906,-116.27417,LDC - Direct Emissions,other
1002235.0,110000555710.0,2023.0,DISCOVERY PRODUCER SERVICES LLC - DISCOVERY PARADIS FRACTIONATION PLANT,15849B OLD SPANISH TRAIL,PARADIS,LA,70080,ST. CHARLES PARISH,DCP MIDSTREAM LP,"6900 East Layton Avenue, STE 900",Denver,CO,80237,40.0,211130.0,1002235,29.86025,-90.453417,Direct Point Emitters,THE WILLIAMS COS INC
1002239.0,,2023.0,Echo Springs Gas Plant,,Wamsutter,WY,82336,Carbon,THE WILLIAMS COS INC,1 Williams Center,Tulsa,OK,74172,100.0,211130.0,1002239,41.6472,-107.8236,Direct Point Emitters,THE WILLIAMS COS INC
1002250.0,110071160885.0,2023.0,Wisconsin Public Service Corporation,700 North Adams,Green Bay,WI,54307,BROWN COUNTY,WEC Energy Group Inc,231 W. Michigan St.,Milwaukee,WI,53203,100.0,221210.0,1002250,44.518347,-88.011616,LDC - Direct Emissions,other
1002251.0,110000727697.0,2023.0,"Big Escambia Creek Gas Production, Treating and Processing Facility (BEC)",3888 Sardis Church Road,Atmore,AL,36502,ESCAMBIA COUNTY,SARA B BATEMAN,7440 Bocage Blvd,Baton Rouge,LA,70809,0.0,211130.0,1002251,31.070275,-87.362958,Direct Point Emitters,other
1002252.0,110043800875.0,2023.0,REM 305 Michigan Basin - PROCESSING,"10691 E Carter Rd, Ste 201",Traverse City,MI,49684,OTSEGO COUNTY,RIVERSIDE ENERGY MICHIGAN LLC,"10691 E Carter Rd, Ste 201",Traverse City,MI,49684,100.0,211130.0,1002252,45.01368,-84.67351,Direct Point Emitters,other
1002255.0,110000579525.0,2023.0,MCFS-CONWAY FRACTIONATOR,1407 5TH AVENUE,MCPHERSON,KS,67460,MCPHERSON COUNTY,ONEOK PARTNERS LP,100 West Fifth Street,Tulsa,OK,74103,10.0,211130.0,1002255,38.379109,-97.833582,Direct Point Emitters,PHILLIPS 66
1002256.0,110008972932.0,2023.0,MARKHAM GAS PROCESSING PLANT,4367 COUNTY ROAD 403,MARKHAM,TX,77456,MATAGORDA COUNTY,THE WILLIAMS COS INC,1 Williams Center,Tulsa,OK,74172,100.0,211130.0,1002256,29.036661,-96.07851,Direct Point Emitters,THE WILLIAMS COS INC
1002264.0,110007030275.0,2023.0,SAN JUAN GAS PLANT,1001 ARIZONA,BLOOMFIELD,NM,87413,SAN JUAN COUNTY,HILCORP ENERGY CO,"1111 Travis St., Houston, TX 77002",Houston,TX,77002,100.0,211130.0,1002264,36.732833,-107.976889,Direct Point Emitters,other
1002265.0,110000569803.0,2023.0,ContangoResources_LOST CABIN,165 LOST CABIN Road,Lysite,WY,82642,FREMONT COUNTY,CONTANGO RESOURCES LLC,"1717 S Boulder Ave, Suite 900",Tulsa,OK,74119,100.0,211130.0,1002265,43.273,-107.6,Direct Point Emitters,other
1002267.0,110071161310.0,2023.0,Rodman Gas Plant,18528 S. Highway 132,Drummond,OK,73735,GARFIELD COUNTY,MUSTANG FUEL CORP,9800 North Oklahoma Avenue,Oklahoma City,OK,73114,100.0,211130.0,1002267,36.272314,-98.068343,Direct Point Emitters,other
1002273.0,110071161342.0,2023.0,"City of Richmond - DPU, Natural Gas LDC",730 East Broad Street,Richmond,VA,23114,CHESTERFIELD COUNTY,CITY OF RICHMOND VIRGINIA,900 East Broad St,Richmond,VA,23219,100.0,221210.0,1002273,37.489045,-77.665066,LDC - Direct Emissions,other
1002297.0,110071159514.0,2023.0,Huntsville Utilities,112 Spragins Street,Huntsville,AL,35804,MADISON COUNTY,HUNTSVILLE UTILITIES,112 Spragins,Huntsville,AL,35804,100.0,221210.0,1002297,34.73,-86.59,LDC - Direct Emissions,other
1002298.0,110043793419.0,2023.0,Bethel Gas Treating Facility,1760 Anderson County Rd 2608,Tennessee Colony,TX,75861,FREESTONE COUNTY,COMSTOCK RESOURCES INC,5300 Town & Country Blvd. Suite 500,Frisco,TX,75034,100.0,211130.0,1002298,31.800928,-96.110294,Direct Point Emitters,other
1002319.0,110056938943.0,2023.0,WILLOW CREEK GAS PLANT,20219 County Road 5,Rifle,CO,81650,RIO BLANCO COUNTY,THE WILLIAMS COS INC,1 Williams Center,Tulsa,OK,74172,100.0,211130.0,1002319,39.83963,-108.241034,Direct Point Emitters,THE WILLIAMS COS INC
1002325.0,110025328795.0,2023.0,BENEDUM GAS PLANT,10501 HIGHWAY 1555,MIDKIFF,TX,79755,UPTON COUNTY,WTG SOUTH PERMIAN MIDSTREAM LLC,"303 Veterans Airpark Lane, Suite 5000",Midland,TX,79705,100.0,211130.0,1002325,31.362088,-101.77962,Direct Point Emitters,other
1002326.0,110000503928.0,2023.0,EAST VEALMOOR GAS PLANT,11703 EAST FM. 846,COAHOMA,TX,79511,HOWARD COUNTY,WTG GAS PROCESSING LLC,"303 Veterans Airpark Lane, Suite 5000",Midland,TX,79705,100.0,211130.0,1002326,32.494444,-101.35222,Direct Point Emitters,other
1002334.0,110000505506.0,2023.0,Jameson Gas Plant,1000 Gas Plant Road,Silver,TX,76949,COKE COUNTY,WTG JAMESON LP,"303 Veterans Airpark Lane, Suite 5000",Midland,TX,79705,100.0,211130.0,1002334,32.0488,-100.6821,Direct Point Emitters,other
1002353.0,110007388031.0,2023.0,CHITWOOD GAS PLANT,,ALEX,OK,73002,GRADY COUNTY,PHILLIPS 66,2331 Citywest Blvd,Houston,TX,77042,86.8,211130.0,1002353,34.8563,-97.8277,Direct Point Emitters,PHILLIPS 66
1002355.0,110000514523.0,2023.0,LUCERNE GAS PLANT,31495 COUNTY ROAD 43,GREELEY,CO,80631,WELD COUNTY,PHILLIPS 66,2331 Citywest Blvd,Houston,TX,77042,86.8,211130.0,1002355,40.457201,-104.664686,Direct Point Emitters,PHILLIPS 66
1002377.0,110070081831.0,2023.0,Douglas Gas Plant,252 Highway 59 North,Douglas,WY,82633,CONVERSE COUNTY,TALLGRASS DEVELOPMENT LP,4200 W. 115Th Street Suite 350,Leawood,KS,66211,100.0,211130.0,1002377,42.790735,-105.356641,Direct Point Emitters,other
1002378.0,110043793570.0,2023.0,SOUTHWEST OZONA GAS PLANT,,OZONA,TX,76943,CROCKETT COUNTY,PHILLIPS 66,2331 Citywest Blvd,Houston,TX,77042,86.8,211130.0,1002378,30.4462,-101.4674,Direct Point Emitters,PHILLIPS 66
1002415.0,110015909935.0,2023.0,SPINDLE GAS PROCESSING PLANT,9101 WELD COUNTY RD 14,FT LUPTON,CO,80621,WELD COUNTY,PHILLIPS 66,2331 Citywest Blvd,Houston,TX,77042,86.8,211130.0,1002415,40.088944,-104.884194,Direct Point Emitters,PHILLIPS 66
1002422.0,110071161305.0,2023.0,OZONA GAS PLANT,,OZONA,TX,76943,CROCKETT COUNTY,JOHNSON & LINDLEY LLC,PO Box 27727,Houston,TX,77227-7727,15.0,211130.0,1002422,30.6817,-101.2173,Direct Point Emitters,PHILLIPS 66
1002424.0,110071161351.0,2023.0,MidAmerican Energy Local Gas Distribution Company,"666 Grand Avenue, Suite 500",DesMoines,IA,50309,POLK COUNTY,BERKSHIRE HATHAWAY INC,"3555 Farnam Street, Suite 1140",Omaha,NE,68131,100.0,221210.0,1002424,41.58758,-93.62616,LDC - Direct Emissions,other
1002447.0,110043973947.0,2023.0,North Hobbs Reinjection Compression Facility (RCF) and West Injection Battery (WIB),1017 West Stanolind Road,Hobbs,NM,88240,LEA COUNTY,STEVENS ENHANCED RECOVERY PARTNERS,1000 Louisiane Ste 3400,Houston,TX,77002-5007,0.7,211120.0,1002447,32.68204,-103.14912,Direct Point Emitters,EXXON MOBIL CORP
1002451.0,110071161746.0,2023.0,Mallet CO2 Recovery Plant,,Sundown,TX,79372,HOCKLEY COUNTY,OCCIDENTAL PETROLEUM CORP,"5 Greenway Plaza, Suite 110",Houston,TX,77046,100.0,211120.0,1002451,33.46028,-102.56333,Direct Point Emitters,other
1002454.0,110071161100.0,2023.0,SALT CREEK FIELD GAS PLANT,,JAYTON,TX,79528,KENT COUNTY,PERMIAN BASIN LP,Po Box 27570,Houston,TX,77227,76.0,211120.0,1002454,33.232539,-100.867608,Direct Point Emitters,other
1002470.0,110056887631.0,2023.0,WETUMKA GAS PROCESSING PLT,8325 E 1292,WETUMKA,OK,74883,HUGHES COUNTY,ENERGY TRANSFER LP,"8111 Westchester Dr, Suite 600",Dallas,TX,75225,100.0,211130.0,1002470,35.14,-96.169167,Direct Point Emitters,ENERGY TRANSFER LP
1002472.0,110071160080.0,2023.0,COX CITY GAS PROCESSING PLT,1747 CR 1530,RUSH SPRINGS,OK,73082,GRADY COUNTY,ENERGY TRANSFER LP,"8111 Westchester Dr, Suite 600",Dallas,TX,75225,100.0,211130.0,1002472,34.796389,-97.800833,Direct Point Emitters,ENERGY TRANSFER LP
1002474.0,110071161213.0,2023.0,CALUMET GAS PROCESSING PLT,14885 N. Ranch Rd.,CALUMET,OK,73014,CANADIAN COUNTY,ENERGY TRANSFER LP,"8111 Westchester Dr, Suite 600",Dallas,TX,75225,100.0,211130.0,1002474,35.667106,-98.15412,Direct Point Emitters,ENERGY TRANSFER LP
1002481.0,110071161353.0,2023.0,Boston Gas Company,40 Sylvan Road,Waltham,MA,2451,MIDDLESEX COUNTY,NATIONAL GRID USA,170 Data Drive,Waltham,MA,02451,100.0,221210.0,1002481,42.397671,-71.270903,LDC - Direct Emissions,other
1002482.0,110071161188.0,2023.0,THE BROOKLYN UNION GAS COMPANY,One MetroTech Center,Brooklyn,NY,11201,KINGS COUNTY,NATIONAL GRID USA,2 Hanson Place,Brooklyn,NY,11217,100.0,221210.0,1002482,40.698677,-73.985941,LDC - Direct Emissions,other
1002515.0,110043804096.0,2023.0,ARTESIA GAS PLANT,,ARTESIA,NM,88210,EDDY COUNTY,PHILLIPS 66,2331 Citywest Blvd,Houston,TX,77042,86.8,211130.0,1002515,32.7564,-104.2111,Direct Point Emitters,PHILLIPS 66
1002521.0,110000727580.0,2023.0,King Ranch Gas Plant,,Kingsville,TX,78375,KLEBERG COUNTY,ENERGY TRANSFER LP,"8111 Westchester Dr, Suite 600",Dallas,TX,75225,100.0,486210.0,1002521,27.4656,-98.0576,Direct Point Emitters,ENERGY TRANSFER LP
1002528.0,,2023.0,FAIN GAS PLANT,32540 Fain Plant Rd.,MASTERSON,TX,79058,,SCOUT ENERGY MANAGEMENT LLC,"13800 Montfort Drive, Suite 100",Dallas,TX,75240,100.0,211130.0,1002528,35.598158,-101.877766,Direct Point Emitters,other
1002532.0,110009557470.0,2023.0,Ignacio Gas Plant,3746 CR 307,Durango,CO,81301,LA PLATA COUNTY,HARVEST PIPELINE CO,1111 Travis St.,Houston,TX,77002,100.0,211130.0,1002532,37.145278,-107.78444,Direct Point Emitters,other
1002544.0,110071159522.0,2023.0,Spire Missouri East,700 Market Street,St. Louis,MO,63101,ST. LOUIS CITY,SPIRE INC,700 Market Street,Saint Louis,MO,63101,100.0,221210.0,1002544,38.628363,-90.191527,LDC - Direct Emissions,other
1002582.0,110071161066.0,2023.0,New Jersey Resources,1415 Wyckoff Rd.,wall township,NJ,7719,MONMOUTH COUNTY,NEW JERSEY RESOURCES CORP,1415 Wyckoff Rd. Po Box 1464,Wall,NJ,07719,100.0,221210.0,1002582,40.21115,-74.12659,LDC - Direct Emissions,other
1002602.0,110071160501.0,2023.0,KEYSPAN GAS EAST CORPORATION,175 East Old Country Road,Hicksville,NY,11801,NASSAU COUNTY,NATIONAL GRID USA,2 Hanson Place,Brooklyn,NY,11217,100.0,221210.0,1002602,40.766791,-73.510559,LDC - Direct Emissions,other
1002603.0,110071160502.0,2023.0,NIAGARA MOHAWK POWER CORPORATION,300 Erie Boulevard West,Syracuse,NY,13202,ONONDAGA COUNTY,NATIONAL GRID USA,2 Hanson Place,Brooklyn,NY,11217,100.0,221121.0,1002603,43.05078,-76.15739,LDC - Direct Emissions,other
1002604.0,110071160503.0,2023.0,THE NARRAGANSETT ELECTRIC COMPANY,280 Melrose Street,Providence,RI,2907,PROVIDENCE COUNTY,PPL CORP,2 N 9th St,Allentown,PA,18101,100.0,221210.0,1002604,41.795681,-71.426968,LDC - Direct Emissions,other
1002611.0,110032885723.0,2023.0,ENERGY TRANSFER MARKETING & TERMINALS L.P. - MARCUS HOOK TERMINAL,100 GREEN ST,MARCUS HOOK,PA,19061,DELAWARE COUNTY,ENERGY TRANSFER LP,"8111 Westchester Dr, Suite 600",Dallas,TX,75225,100.0,493190.0,1002611,39.8119,-75.424,Direct Point Emitters,ENERGY TRANSFER LP
1002623.0,110071162161.0,2023.0,"Copano Energy Houston Central Plant, TX",1651 County Rd. 255 South,Sheridan,TX,77475,COLORADO COUNTY,KINDER MORGAN INC,"1001 Louisiana St, Suite 1000",Houston,TX,77002,100.0,211130.0,1002623,29.6331,-96.719424,Direct Point Emitters,KINDER MORGAN INC
1002625.0,110071159927.0,2023.0,SLAUGHTER GASOLINE PLANT,,SUNDOWN,TX,79372,HOCKLEY COUNTY,OCCIDENTAL PETROLEUM CORP,"5 Greenway Plaza, Suite 110",Houston,TX,77046,100.0,211130.0,1002625,33.467778,-102.558889,Direct Point Emitters,other
1002628.0,110000753578.0,2023.0,DISCOVERY PRODUCER SERVICES LLC - LAROSE GAS PROCESSING PLANT,1474 Highway 24,LAROSE,LA,70373,LAFOURCHE PARISH,THE WILLIAMS COS INC,1 Williams Center,Tulsa,OK,74172,60.0,211130.0,1002628,29.5454,-90.39736,Direct Point Emitters,THE WILLIAMS COS INC
1002629.0,110012182422.0,2023.0,WASSON CO2 REMOVAL PLANT,2582 COUNTY ROAD 355,DENVER CITY,TX,79323,YOAKUM COUNTY,OCCIDENTAL PETROLEUM CORP,"5 Greenway Plaza, Suite 110",Houston,TX,77046,86.1,211120.0,1002629,32.99825,-102.81518,Direct Point Emitters,other
1002630.0,110071161397.0,2023.0,WILLARD CO2 SEPARATION PLANT,,DENVER CITY,TX,79323,YOAKUM COUNTY,PERMIAN BASIN LP,Po Box 27570,Houston,TX,77227,35.0,211120.0,1002630,33.02778,-102.81972,Direct Point Emitters,other
1002664.0,110007386079.0,2023.0,SHOLEM GAS PLANT,,COUNTYLINE,OK,73425,STEPHENS COUNTY,PHILLIPS 66,2331 Citywest Blvd,Houston,TX,77042,86.8,211130.0,1002664,34.4942,-97.5864,Direct Point Emitters,PHILLIPS 66
1002668.0,110043816261.0,2023.0,PEGASUS GAS PLANT,,MIDKIFF,TX,79755,MIDLAND COUNTY,PHILLIPS 66,2331 Citywest Blvd,Houston,TX,77042,85.4521,211130.0,1002668,31.6615,-102.1383,Direct Point Emitters,PHILLIPS 66
1002676.0,110071161329.0,2023.0,Hawkins Gas Plant,,HAWKINS,TX,75765,WOOD COUNTY,EXXON MOBIL CORP,5959 Las Colinas Blvd,Irving,TX,75039,100.0,211130.0,1002676,32.6105,-95.1957,Direct Point Emitters,EXXON MOBIL CORP
1002678.0,110041014568.0,2023.0,SACROC CO2 TREATMENT,3775 County Road 226,SNYDER,TX,79549,SCURRY COUNTY,KINDER MORGAN INC,"1001 Louisiana St, Suite 1000",Houston,TX,77002,100.0,211120.0,1002678,32.74751,-100.95855,Direct Point Emitters,KINDER MORGAN INC
1002680.0,110000913138.0,2023.0,SNYDER GAS PLANT,718 NORTH FM 1611,SNYDER,TX,79549,SCURRY COUNTY,KINDER MORGAN INC,"1001 Louisiana St, Suite 1000",Houston,TX,77002,100.0,211120.0,1002680,32.747699,-100.923444,Direct Point Emitters,KINDER MORGAN INC
1002687.0,110043808591.0,2023.0,Duke Energy Ohio Gas Operation,139 East Fourth St.,Cincinnati,OH,45201,HAMILTON COUNTY,DUKE ENERGY CORP,525 S Tryon Street,Charlotte,NC,28202,100.0,221210.0,1002687,39.10036,-84.50994,LDC - Direct Emissions,other
1002701.0,110071159610.0,2023.0,"LG&E and KU Energy, LLC",220 West Main,Louisville,KY,40202,JEFFERSON COUNTY,PPL CORP,2 N 9Th Street,Allentown,PA,18101,100.0,486210.0,1002701,38.25634,-85.75418,LDC - Direct Emissions,other
1002774.0,110070834980.0,2023.0,"NGPL Station 201 Storage, Herscher, IL",5611 S 12000 WEST RD,HERSCHER,IL,60941,KANKAKEE COUNTY,KINDER MORGAN INC,"1001 Louisiana St, Suite 1000",Houston,TX,77002,100.0,486210.0,1002774,41.033504,-88.089958,Direct Point Emitters,KINDER MORGAN INC
1002778.0,110071161704.0,2023.0,"TGG PIPELINE, LTD. - HOLLY COMMON POINT #3 COMPRESSOR STATION",8451 Hwy. 175,Grand Cane,LA,71032,DE SOTO PARISH,"CLEARFORK MIDSTREAM, LLC",8451 Hwy. 175,Grand Cane,LA,71032,100.0,211130.0,1002778,32.235788,-93.642048,Direct Point Emitters,other
1002791.0,110071161373.0,2023.0,PECO Gas Division,2301 Market Street  S7-2,Philadelphia,PA,19101,PHILADELPHIA COUNTY,EXELON CORP,"10 S. Dearborn Street, 48Th Floor",Chicago,IL,60603-2300,100.0,221210.0,1002791,39.95415,-75.17781,LDC - Direct Emissions,other
1002812.0,110071162126.0,2023.0,PSE&G,80 Park Plaza,Newark,NJ,7102,ESSEX COUNTY,PUBLIC SERVICE ENTERPRISE GROUP INC,80 Park Plaza,Newark,NJ,07102,100.0,221210.0,1002812,40.735075,-74.173906,LDC - Direct Emissions,other
1002816.0,110009449409.0,2023.0,Casper Gas Plant,5750 E Yellowstone Hwy,Casper,WY,82609,NATRONA COUNTY,TALLGRASS DEVELOPMENT LP,4200 W. 115Th Street Suite 350,Leawood,KS,66211,100.0,211130.0,1002816,42.85426,-106.39022,Direct Point Emitters,other
1002839.0,110018125456.0,2023.0,"NGPL Station 206 Storage, St Elmo, IL",2513 N 2125 St,St. Elmo,IL,62458,FAYETTE COUNTY,KINDER MORGAN INC,"1001 Louisiana St, Suite 1000",Houston,TX,77002,100.0,486210.0,1002839,39.102169,-88.860001,Direct Point Emitters,KINDER MORGAN INC
1002868.0,110001875686.0,2023.0,NORTH CROSS COMP STATION 4,4.3 M W ON US 67/385,MCCAMEY,TX,79752,UPTON COUNTY,OCCIDENTAL PETROLEUM CORP,"5 Greenway Plaza, Suite 110",Houston,TX,77046,93.95,211120.0,1002868,31.10944,-102.298058,Direct Point Emitters,other
1002895.0,110071161697.0,2023.0,Public Service Company of Colorado,1800 Larimer Street,Denver,CO,80202,DENVER COUNTY,XCEL ENERGY INC,414 Nicollet Mall,Minneapolis,MN,55401,100.0,221210.0,1002895,39.75107,-104.99502,LDC - Direct Emissions,other
1002943.0,110021174744.0,2023.0,"BARGATH, INC.- PARACHUTE",,"PARACHUTE, 3.4 MI NW OF",CO,81635,GARFIELD COUNTY,THE WILLIAMS COS INC,1 Williams Center,Tulsa,OK,74172,100.0,211130.0,1002943,39.487297,-108.111356,Direct Point Emitters,THE WILLIAMS COS INC
1002952.0,110033785875.0,2023.0,HOBART PLANT,15042 FM 3044,CANADIAN,TX,79014,HEMPHILL COUNTY,UNIT CORP,8200 South Unit Drive,Tulsa,OK,74132,100.0,211130.0,1002952,35.768758,-100.379967,Direct Point Emitters,other
1002978.0,110001187705.0,2023.0,Arroyo Grande Production Facility,1821 PRICE CANYON ROAD,SAN LUIS OBISPO,CA,93401,SAN LUIS OBISPO COUNTY,SENTINEL PEAK RESOURCES LLC,"6501 E Belleview Avenue, Suite 400",Englewood,CA,80111,100.0,211120.0,1002978,35.1814,-120.61965,Onshore Oil & Gas Prod.,other
1002986.0,110071162240.0,2023.0,"NorthWestern Energy, SD LDC",11 E. Park,Butte,MT,59701,SILVER BOW COUNTY,NORTHWESTERN CORP,3010 W 69Th Street,Sioux Falls,SD,57108,100.0,221210.0,1002986,46.013787,-112.534853,LDC - Direct Emissions,other
1003026.0,110071161228.0,2023.0,SEMCO Energy Gas Company,"1411 Third St, Suite A",Port Huron,MI,48060,ST. CLAIR COUNTY,SEMCO HOLDING CORP,"1411 Third St, Suite A",Port Huron,MI,48060,100.0,221210.0,1003026,42.975187,-82.464445,LDC - Direct Emissions,other
1003045.0,110000878998.0,2023.0,Petro-Hunt L.L.C.,813 123rd Avenue SW,Killdeer,ND,58640,BILLINGS COUNTY,TRUE OIL CO,P.O. Drawer 2360,Casper,WY,82602,0.93011,211130.0,1003045,47.2975,-103.0975,Direct Point Emitters,other
1003050.0,110071161359.0,2023.0,Avista Corporation-WA,1411 E. Mission,Spokane,WA,99220,SPOKANE COUNTY,AVISTA CORP,1411 E Mission Avenue,Spokane,WA,99202,100.0,221210.0,1003050,47.66,-117.39,LDC - Direct Emissions,other
1003056.0,,2023.0,"Bridge Energy, LLC - Brea Stearns Facility",2000 Tonner Canyon Road,Brea,CA,92821,,BRIDGE ENERGY LLC,2000 Tonner Canyon Road,Brea,CA,92821,100.0,211120.0,1003056,33.93819,-117.87653,Onshore Oil & Gas Prod.,other
1003066.0,110071161720.0,2023.0,National Fuel Gas Distribution Corporation,6363 Main Street,Williamsville,NY,14221,ERIE COUNTY,NATIONAL FUEL GAS CO,6363 Main Street,Williamsville,NY,14221,100.0,221210.0,1003066,42.96609,-78.71452,LDC - Direct Emissions,other
1003082.0,110071159972.0,2023.0,AVINGER GAS PLANT,2339 Avinger Cut Off Road,Avinger,TX,75630,MARION COUNTY,M6 Midstream LLC,600 Travis Suite 5500,Houston,TX,77002,100.0,211130.0,1003082,32.872582,-94.584072,Direct Point Emitters,other
1003083.0,110071160629.0,2023.0,JACKALOPE TREATER,,MIRANDO CITY,TX,78369,JIM HOGG COUNTY,ENERGY TRANSFER LP,"8111 Westchester Dr, Suite 600",Dallas,TX,75225,100.0,211130.0,1003083,27.2567,-98.9001,Direct Point Emitters,ENERGY TRANSFER LP
1003094.0,110001371220.0,2023.0,PATTERSON GAS PROCESSING PLANT,308 Torch Lane,Patterson,LA,70392,ST. MARY PARISH,PLAINS GP HOLDINGS LP,"333 Clay Street, Ste. 1600",Houston,TX,77002,100.0,211130.0,1003094,29.713006,-91.308369,Direct Point Emitters,other
1003097.0,110008165939.0,2023.0,TRINIDAD GAS PROCESSING PLANT,795 LONE STAR ROAD,TRINIDAD,TX,75163,HENDERSON COUNTY,M6 MIDSTREAM LLC,600 Travis Suite 5500,Houston,TX,77002,100.0,211130.0,1003097,32.127458,-96.085153,Direct Point Emitters,other
1003127.0,110033851357.0,2023.0,GODLEY PLANT,8711 COUNTY ROAD 916,GODLEY,TX,76044,JOHNSON COUNTY,ENERGY TRANSFER LP,"8111 Westchester Dr, Suite 600",Dallas,TX,75225,100.0,486210.0,1003127,32.499712,-97.553035,Direct Point Emitters,ENERGY TRANSFER LP
1003128.0,110041031040.0,2023.0,Terrell Gas Plant,,Sheffield,TX,79781,TERRELL COUNTY,EXXON MOBIL CORP,5959 Las Colinas Blvd,Irving,TX,75039,23.0,211120.0,1003128,30.3736,-101.8433,Direct Point Emitters,EXXON MOBIL CORP
1003129.0,110062227139.0,2023.0,AKER PLANT,261 FCR 181,STREETMAN,TX,75859,FREESTONE COUNTY,M6 Midstream LLC,600 Travis Suite 5500,Houston,TX,77002,100.0,211130.0,1003129,31.91,-96.2233,Direct Point Emitters,other
1003155.0,110071160842.0,2023.0,Metropolitan Utilities District of Omaha,1723 Harney Street,Omaha,NE,68102,DOUGLAS COUNTY,METROPOLITAN UTILITIES DISTRICT,7350 World Communications Drive,Omaha,NE,68122,100.0,221210.0,1003155,41.25655,-95.93866,LDC - Direct Emissions,other
1003158.0,110006020625.0,2023.0,CROSSTEX PROCESSING SERVICES LLC - RIVERSIDE FRACTIONATION,10280 Louisiana HWY 75,GEISMAR,LA,70734,ASCENSION PARISH,ENLINK MIDSTREAM LLC,"1722 Routh Street, Suite 1300",Dallas,TX,75201,100.0,211130.0,1003158,30.214123,-91.035113,Direct Point Emitters,other
1003170.0,110071160648.0,2023.0,Silver Creek Processing Plant,,Weatherford,TX,76087,PARKER COUNTY,ENLINK MIDSTREAM LLC,"1722 Routh Street, Suite 1300",Dallas,TX,75201,100.0,211130.0,1003170,32.800654,-97.674429,Direct Point Emitters,other
1003203.0,110071160846.0,2023.0,"Northern States Power Company, A Minnesota Corporation",414 Nicollet Mall,Minneapolis,MN,55401,HENNEPIN COUNTY,XCEL ENERGY INC,414 Nicollet Mall,Minneapolis,MN,55401,100.0,221210.0,1003203,44.97927,-93.27022,LDC - Direct Emissions,other
1003211.0,110071161080.0,2023.0,Chandler Compressor Station/Wilburton Compressor Station,1503 SW 1050th Avenue,WILBURTON,OK,74578,LATIMER COUNTY,ENERGY TRANSFER LP,"8111 Westchester Dr, Suite 600",Dallas,TX,75225,100.0,213112.0,1003211,34.835035,-95.310251,Direct Point Emitters,ENERGY TRANSFER LP
1003219.0,110033214000.0,2023.0,GRAPELAND PLANT,2415 FM 1272,GRAPELAND,TX,75844,HOUSTON COUNTY,M6 Midstream LLC,600 Travis Suite 5500,Houston,TX,77002,100.0,486210.0,1003219,31.512127,-95.52634,Direct Point Emitters,other
1003221.0,110071159469.0,2023.0,Sunray Gas Plant,11571 Texas Beef Road,Sunray,TX,79086,MOORE COUNTY,ENERGY TRANSFER LP,"8111 Westchester Dr, Suite 600",Dallas,TX,75225,100.0,211130.0,1003221,35.962968,-101.81107,Direct Point Emitters,ENERGY TRANSFER LP
1003223.0,110071159470.0,2023.0,Florida River Gas Processing Facility,1199 MAIN AVE SUITE 101,DURANGO,CO,81301,LA PLATA COUNTY,BP AMERICA INC,"4101 Winfield Road, Suite 200",Warrenville,IL,60555,100.0,211130.0,1003223,37.27634,-107.87976,Direct Point Emitters,other
1003254.0,110010054975.0,2023.0,Wattenberg Gas Plant,1909 Powhaton Road,Aurora,CO,80019,ADAMS COUNTY,WESTERN MIDSTREAM PARTNERS LP,9950 Woodloch Forest Drive,The Woodlands,TX,77380,100.0,211130.0,1003254,39.746431,-104.681535,Direct Point Emitters,other
1003285.0,110071159472.0,2023.0,Delmarva Power & Light - Gas Delivery,"630 Martin Luther King Jr., Blvd.",Wilmington,DE,19801,NEW CASTLE COUNTY,EXELON CORP,"10 S. Dearborn Street, 48Th Floor",Chicago,IL,60603-2300,100.0,221210.0,1003285,39.740363,-75.558513,LDC - Direct Emissions,other
1003316.0,110030736764.0,2023.0,HIDETOWN PLANT,8020 FM 3104,WHEELER,TX,79096,WHEELER COUNTY,PRODUCERS MIDSTREAM II LLC,"3500 Maple Ave., Suite 700",Dallas,TX,75219,100.0,211130.0,1003316,35.462533,-100.396697,Direct Point Emitters,other
1003317.0,110031262489.0,2023.0,WEATHERFORD PLANT,451 Jones Road,Weatherford,TX,76088,PARKER COUNTY,COLT MIDSTREAM LLC,"2950 North Loop West, Suite 1150",Houston,TX,77092,100.0,211130.0,1003317,32.73335,-97.8744,Direct Point Emitters,other
1003318.0,110023014003.0,2023.0,ZYBACH CRYOGENIC PLANT,16475 FM 1046,Briscoe,TX,79011,WHEELER COUNTY,PRODUCERS MIDSTREAM II LLC,"3500 Maple Ave., Suite 700",Dallas,TX,75219,100.0,211130.0,1003318,35.605,-100.148333,Direct Point Emitters,other
1003319.0,110043783340.0,2023.0,"LAMBDA ENERGY RESOURCES, LLC-KALKASKA GAS PLANT",1080 PROUGH RD SW,KALKASKA,MI,49646,KALKASKA COUNTY,LAMBDA ENERGY RESOURCES LLC,"12012 Wickchester Lane, Suite 300",Houston,TX,77079,100.0,211130.0,1003319,44.69818,-85.19514,Direct Point Emitters,other
1003336.0,110071161339.0,2023.0,Spire Gulf Inc.,2828 Dauphin St,Mobile,AL,36606,MOBILE COUNTY,SPIRE INC,700 Market Street,Saint Louis,MO,63101,100.0,221210.0,1003336,30.68858,-88.10822,LDC - Direct Emissions,other
1003346.0,110000755889.0,2023.0,Sterling Gas Plant,14206 US Highway 87 N,Sterling,TX,76951,STERLING COUNTY,TARGA RESOURCES CORP,"811 Louisiana Street, Suite 2100",Houston,TX,77002,100.0,211130.0,1003346,31.970278,-101.236111,Direct Point Emitters,TARGA RESOURCES CORP
1003347.0,110071160922.0,2023.0,Mertzon Gas Plant,14701 US 67 West,Mertzon,TX,76941,IRION COUNTY,TARGA RESOURCES CORP,"811 Louisiana Street, Suite 2100",Houston,TX,77002,100.0,211130.0,1003347,31.25577,-100.89031,Direct Point Emitters,TARGA RESOURCES CORP
1003360.0,110043970156.0,2023.0,PASCAGOULA GAS PLANT,6800 and 6812 STENNIS BOULEVARD,MOSS POINT,MS,39562,JACKSON COUNTY,ENTERPRISE PRODUCTS PARTNERS LP,"1100 Louisiana Street, 10Th Floor",Houston,TX,77002,100.0,211130.0,1003360,30.38409,-88.49842,Direct Point Emitters,ENTERPRISE PRODUCTS PARTNERS LP
1003441.0,110015744462.0,2023.0,"WORSHAM STEED GAS STORAGE, LLC",8151 Highway 281 South,PERRIN,TX,76486,JACK COUNTY,TAILWATER ENERGY FUND IV LP,2021 McKinney Ave #1250,Dallas,TX,75201,99.0,486210.0,1003441,33.0875,-98.071667,Direct Point Emitters,other
1003447.0,110071162120.0,2023.0,UGC - DRAGON TRAIL GAS PLANT - 08-103-00036,3606 COUNTY ROAD 116,RANGELY,CO,81648,RIO BLANCO COUNTY,UTAH GAS CORP,1125 Escalante Drive,Rangely,CO,81648,100.0,211130.0,1003447,39.859473,-108.915996,Direct Point Emitters,other
1003452.0,110071161655.0,2023.0,"KMTP Station 581 Markham, TX",7197 FM 1468 N,Bay City,TX,77414,MATAGORDA COUNTY,KINDER MORGAN INC,"1001 Louisiana St, Suite 1000",Houston,TX,77002,100.0,486210.0,1003452,28.99565,-96.15619,Direct Point Emitters,KINDER MORGAN INC
1003462.0,110071161436.0,2023.0,Eastern Gas Transmission and Storage - Lightburn Station and Extraction Plant (Stor and Proc),6489 Old Mill Road,Jane Lew,WV,26378,LEWIS COUNTY,BERKSHIRE HATHAWAY INC,"3555 Farnam Street, Suite 1140",Omaha,NE,68131,100.0,486210.0,1003462,39.119136,-80.455361,Direct Point Emitters,other
1003475.0,110071161289.0,2023.0,Clear Lake Amine Plant,211 Yearwood Road,Williams,LA,71052,CADDO PARISH,ENERGY TRANSFER LP,"8111 Westchester Dr, Suite 600",Dallas,TX,75225,100.0,213112.0,1003475,32.239218,-93.520564,Direct Point Emitters,ENERGY TRANSFER LP
1003483.0,110071161837.0,2023.0,Magnolia Amine Plant,5052 Highway 371,Ringgold,LA,71068,BIENVILLE PARISH,ENERGY TRANSFER LP,"8111 Westchester Dr, Suite 600",Dallas,TX,75225,100.0,213112.0,1003483,32.267848,-93.298611,Direct Point Emitters,ENERGY TRANSFER LP
1003491.0,110071159290.0,2023.0,City Utilities Natural Gas Distribution System,301 E. CENTRAL,SPRINGFIELD,MO,65802,GREENE COUNTY,CITY UTILITIES OF SPRINGFIELD MISSOURI,301 E. Central Street,Springfield,MO,65802,100.0,221210.0,1003491,37.21738,-93.29036,LDC - Direct Emissions,other
1003530.0,110071160265.0,2023.0,POINT COMFORT GAS PLANT,103 FANNIN ROAD,POINT COMFORT,TX,77978,CALHOUN COUNTY,FORMOSA PLASTICS CORP USA,22715 Two Rivers Lane,Katy,TX,77450,100.0,486210.0,1003530,28.665657,-96.567663,Direct Point Emitters,other
1003535.0,110071162086.0,2023.0,"Eastern Gas Transmission and Storage - Hastings Complex (Proc,Tran)",14508 Shortline Hwy,Pine Grove,WV,26419,WETZEL COUNTY,BERKSHIRE HATHAWAY INC,"3555 Farnam Street, Suite 1140",Omaha,NE,68131,100.0,211130.0,1003535,39.55139,-80.67806,Direct Point Emitters,other
1003558.0,110071160538.0,2023.0,Waterville Gas & Oil Company,700 Farnsworth Rd.,Waterville,OH,43566,LUCAS COUNTY,WATERVILLE GAS & OIL CO,700 Farnsworth Rd.,Waterville,OH,43566,100.0,221210.0,1003558,41.49916,-83.72712,LDC - Direct Emissions,other
1003576.0,110071161403.0,2023.0,Rochester Gas & Electric Corp,89 East Avenue,Rochester,NY,14649,MONROE COUNTY,AVANGRID INC,180 Marsh Hill Road,Orange,CT,06477,100.0,221122.0,1003576,43.2689,-77.6294,LDC - Direct Emissions,other
1003642.0,110071161404.0,2023.0,New York State Electric and Gas,18 Link Drive,Binghamton,NY,13904,BROOME COUNTY,AVANGRID INC,180 Marsh Hill Road,Orange,CT,06477,100.0,221210.0,1003642,42.10448,-75.8245,LDC - Direct Emissions,other
1003736.0,110071161410.0,2023.0,OFS GPRP Custer Gas Plant,,CUSTER CITY,OK,73639,CUSTER COUNTY,ONEOK INC,100 West Fifth Street,Tulsa,OK,74103,100.0,211130.0,1003736,35.6489194,-98.8980583,Direct Point Emitters,other
1003750.0,110008377407.0,2023.0,Gillis Gas Plant,3807 Luke Powers Rd,Lake Charles,LA,70615,CALCASIEU PARISH,TARGA RESOURCES CORP,"811 Louisiana Street, Suite 2100",Houston,TX,77002,100.0,211130.0,1003750,30.273333,-93.156944,Direct Point Emitters,TARGA RESOURCES CORP
1003764.0,110009003078.0,2023.0,Chico Gas Plant,383 County Road 1745,Chico,TX,76431,WISE COUNTY,TARGA RESOURCES CORP,"811 Louisiana Street, Suite 2100",Houston,TX,77002,100.0,211130.0,1003764,33.305465,-97.883523,Direct Point Emitters,TARGA RESOURCES CORP
1003767.0,110071161038.0,2023.0,Sand Hills Gas Plant,5880 FM 1233,Crane,TX,79731,CRANE COUNTY,TARGA RESOURCES CORP,"811 Louisiana Street, Suite 2100",Houston,TX,77002,100.0,211130.0,1003767,31.409312,-102.415134,Direct Point Emitters,TARGA RESOURCES CORP
1003839.0,,2023.0,Columbia Gas of Pennsylvania,801 East 86th Avenue,Merrillville,IN,46410,,NISOURCE INC,801 E 86Th Ave,Merrillville,IN,46410,100.0,221210.0,1003839,40.28588,-80.1788,LDC - Direct Emissions,other
1003840.0,110071162208.0,2023.0,Eversource Gas Mass,247 Station Dr,Westwood,MA,2090,WORCESTER COUNTY,EVERSOURCE ENERGY,P.O. Box 270,Hartford,CT,06141,100.0,221210.0,1003840,42.283831,-71.583763,LDC - Direct Emissions,other
1003848.0,110071161255.0,2023.0,Thunder Creek Gas Services Buckshot Gas Plant,45 Natural Bridge Road,Douglas,WY,82633,CONVERSE COUNTY,MERITAGE MIDSTREAM SERVICES II LLC,"1331 17Th Street, Suite 1100",Denver,CO,80202,100.0,213112.0,1003848,42.788059,-105.613954,Direct Point Emitters,other
1003922.0,110071160358.0,2023.0,"Vermont Gas Systems, Inc.",85 Swift Street,South Burlington,VT,5403,CHITTENDEN COUNTY,NORTHERN NEW ENGLAND ENERGY CORP,85 Swift Street,South Burlington,VT,05403,100.0,221210.0,1003922,44.449349,-73.160781,LDC - Direct Emissions,other
1003942.0,110071161039.0,2023.0,Columbia Gas of Ohio,801 East 86th Avenue,Merrillville,IN,46410,FRANKLIN COUNTY,NISOURCE INC,801 E 86Th Ave,Merrillville,IN,46410,100.0,221210.0,1003942,39.95745,-83.00355,LDC - Direct Emissions,other
1003955.0,110071161346.0,2023.0,OFS GPRP Antelope Hills Gas Plant,,Crawford,OK,73638,ROGER MILLS COUNTY,ONEOK INC,100 West Fifth Street,Tulsa,OK,74103,100.0,211130.0,1003955,35.8303583,-99.783175,Direct Point Emitters,other
1003992.0,110071161040.0,2023.0,Jackson Energy Authority,119 East College Street,Jackson,TN,38301,MADISON COUNTY,JACKSON ENERGY AUTHORITY,250 North Highland Avenue,Jackson,TN,38301,100.0,221210.0,1003992,35.61589,-88.81837,LDC - Direct Emissions,other
1004034.0,110071160131.0,2023.0,Ameren Missouri,1901 Chouteau Avenue,St. Louis,MO,63103,ST. LOUIS CITY,AMEREN CORP,1901 Chouteau Avenue,St. Louis,MO,63101,100.0,221210.0,1004034,38.620667,-90.211086,LDC - Direct Emissions,other
1004049.0,110071159240.0,2023.0,CenterPoint Energy Entex (Mississippi),P.O. Box 0305,Houston,TX,77002,HARRIS COUNTY,CENTERPOINT ENERGY INC,"1111 Louisiana Street, Suite 264",Houston,TX,77002,100.0,221210.0,1004049,29.752554,-95.370401,LDC - Direct Emissions,other
1004054.0,110043784517.0,2023.0,Elizabethtown Gas,300 Connell Drive,Berkeley Heights,NJ,7922,UNION COUNTY,SOUTH JERSEY INDUSTRIES INC,1 South Jersey Plaza,Folsom,NJ,08037,100.0,221210.0,1004054,40.66158,-74.417,LDC - Direct Emissions,other
1004063.0,110071162224.0,2023.0,City of Charlottesville,605 East Main St,Charlottesville,VA,22902,CHARLOTTESVILLE CITY,CITY OF CHARLOTTESVILLE VIRGINIA,605 E Main Street,Charlottesville,VA,22902,100.0,221210.0,1004063,38.0296,-78.47772,LDC - Direct Emissions,other
1004086.0,110071160439.0,2023.0,CenterPoint Energy Minnesota Gas,505 Nicollet Mall,Minneapolis,MN,55402,HENNEPIN COUNTY,CENTERPOINT ENERGY INC,"1111 Louisiana Street, Suite 264",Houston,TX,77002,100.0,221210.0,1004086,44.97619,-93.27482,LDC - Direct Emissions,other
1004087.0,110000714889.0,2023.0,Armstrong Gas Plant,13072 FM 682,Yoakum,TX,77995,DEWITT COUNTY,ENTERPRISE PRODUCTS PARTNERS LP,"1100 Louisiana Street, 10Th Floor",Houston,TX,77002,100.0,211130.0,1004087,29.133889,-97.039161,Direct Point Emitters,ENTERPRISE PRODUCTS PARTNERS LP
1004107.0,110071160978.0,2023.0,Kansas Gas Service,7421 W. 129th St,Overland Park,KS,66213,JOHNSON COUNTY,ONE GAS INC,15 E. 5Th St.,Tulsa,OK,74103,100.0,221210.0,1004107,38.89568,-94.67267,LDC - Direct Emissions,other
1004108.0,110071160980.0,2023.0,Oklahoma Natural Gas Co.,401 N. Harvey,Oklahoma City,OK,73101,OKLAHOMA COUNTY,ONE GAS INC,15 E. 5Th St.,Tulsa,OK,74103,100.0,221210.0,1004108,35.47121,-97.51788,LDC - Direct Emissions,other
1004110.0,110043796416.0,2023.0,West Frenchie Draw Amine Plant,150 Deer Creek Rd. / North of Highway 20-26,Lysite,WY,82642,FREMONT COUNTY,TALLGRASS DEVELOPMENT LP,4200 W. 115Th Street Suite 350,Leawood,KS,66211,100.0,211130.0,1004110,43.287261,-107.621532,Direct Point Emitters,other
1004112.0,110071160442.0,2023.0,Southern Indiana Gas & Electric Company,One Vectren Square,Evansville,IN,47711,VANDERBURGH COUNTY,CENTERPOINT ENERGY INC,"1111 Louisiana Street, Suite 264",Houston,TX,77002,100.0,221210.0,1004112,38.005965,-87.549475,LDC - Direct Emissions,other
1004115.0,110071160443.0,2023.0,CON EDISON - NATURAL GAS DELIVERY SYSTEM,"4 Irving Place, Rm 1634",New York,NY,10003,NEW YORK COUNTY,CONSOLIDATED EDISON INC,4 Irving Place,New York,NY,10003,100.0,221210.0,1004115,40.734108,-73.98868,LDC - Direct Emissions,other
1004120.0,110071160445.0,2023.0,WISCONSIN ELECTRIC POWER COMPANY,231 W. MICHIGAN ST.,MILWAUKEE,WI,53201,MILWAUKEE COUNTY,WEC ENERGY GROUP Inc,231 W. Michigan Street,Milwaukee,WI,53203,100.0,221210.0,1004120,43.03741,-87.91381,LDC - Direct Emissions,other
1004137.0,110055509285.0,2023.0,BKV Midstream - Cotton Cove,10055 Morris Dido Newark Rd,Fort Worth,TX,76179,TARRANT COUNTY,BKV CORP,1200 17th STREET,DENVER,CO,80202,100.0,211130.0,1004137,32.907723,-97.465856,Direct Point Emitters,other
1004144.0,110071159250.0,2023.0,XTO - New Teague Plant,230 FCR 640,Teague,TX,75860,FREESTONE COUNTY,EXXON MOBIL CORP,5959 Las Colinas Blvd,Irving,TX,75039,100.0,211130.0,1004144,31.591369,-96.21636,Direct Point Emitters,EXXON MOBIL CORP
1004154.0,110071160979.0,2023.0,"City of Union, South Carolina",101 Sharpe Avenue,Union,SC,29379,UNION COUNTY,CITY OF UNION SOUTH CAROLINA,101 Sharpe Avenue,Union,SC,29379,100.0,221210.0,1004154,34.71568,-81.62514,LDC - Direct Emissions,other
1004163.0,110071160244.0,2023.0,NICOR GAS,1844 W. FERRY ROAD,NAPERVILLE,IL,60563,DUPAGE COUNTY,THE SOUTHERN CO,"30 Ivan Allen Jr Boulevard Nw, Suite 1407",Atlanta,GA,30308-3008,100.0,221210.0,1004163,41.796293,-88.197415,LDC - Direct Emissions,other
1004180.0,110043793909.0,2023.0,Virginia Natural Gas,150 West Main Street,Norfolk,VA,23510,NORFOLK CITY,THE SOUTHERN CO,"30 Ivan Allen Jr Boulevard Nw, Suite 1407",Atlanta,GA,30308-3008,100.0,221210.0,1004180,36.84668,-76.29339,LDC - Direct Emissions,other
1004198.0,110071160441.0,2023.0,CenterPoint Energy Entex (Louisiana),P.O. Box 0305,Houston,TX,77002,HARRIS COUNTY,CENTERPOINT ENERGY INC,"1111 Louisiana Street, Suite 264",Houston,TX,77002,100.0,221210.0,1004198,29.752554,-95.370401,LDC - Direct Emissions,other
1004210.0,110071160246.0,2023.0,Indiana Gas Company,2111 NW Riverside Dr.,Evansville,IN,47708,VANDERBURGH COUNTY,CENTERPOINT ENERGY INC,"1111 Louisiana Street, Suite 264",Houston,TX,77002,100.0,221210.0,1004210,37.973424,-87.575423,LDC - Direct Emissions,other
1004214.0,110071160001.0,2023.0,City of Perryville,215 N West St,Perryville,MO,63775,PERRY COUNTY,CITY OF PERRYVILLE MISSOURI,215 N West St,Perryville,MO,63775,100.0,221210.0,1004214,37.72742,-89.86481,LDC - Direct Emissions,other
1004248.0,110071159243.0,2023.0,Gomez Gas Plant,3238 W. Gomez Road,Fort Stockton,TX,79735,PECOS COUNTY,ENERGY TRANSFER LP,"8111 Westchester Dr, Suite 600",Dallas,TX,75225,100.0,211130.0,1004248,30.985001,-102.974442,Direct Point Emitters,ENERGY TRANSFER LP
1004269.0,,2023.0,Spearman Gas Processing Plant,,Spearman,TX,79081,Ochiltree,ENERGY TRANSFER LP,"8111 Westchester Dr, Suite 600",Dallas,TX,75225,100.0,211130.0,1004269,36.0842,-101.0478,Direct Point Emitters,ENERGY TRANSFER LP
1004293.0,110071160446.0,2023.0,WISCONSIN GAS COMPANY,231 W. MICHIGAN ST.,MILWAUKEE,WI,53201,MILWAUKEE COUNTY,WEC ENERGY GROUP Inc,231 W. Michigan Street,Milwaukee,WI,53203,100.0,221210.0,1004293,43.03741,-87.91381,LDC - Direct Emissions,other
1004296.0,110071160413.0,2023.0,Vectren Energy Delivery of Ohio,One Vectren Square,Evansville,IN,47708,VANDERBURGH COUNTY,CENTERPOINT ENERGY INC,"1111 Louisiana Street, Suite 264",Houston,TX,77002,100.0,221210.0,1004296,37.973424,-87.575423,LDC - Direct Emissions,other
1004301.0,110042263181.0,2023.0,Century Gas Plant,2301 Puckett Road,Fort Stockton,TX,79735,PECOS COUNTY,OCCIDENTAL PETROLEUM CORP,"5 Greenway Plaza, Suite 110",Houston,TX,77046,100.0,211120.0,1004301,30.610401,-102.579371,Direct Point Emitters,other
1004302.0,110071160136.0,2023.0,Beaver Gas Plant,,Beaver,OK,73932,BEAVER COUNTY,ENERGY TRANSFER LP,"8111 Westchester Dr, Suite 600",Dallas,TX,75225,100.0,211130.0,1004302,36.72641,-100.29269,Direct Point Emitters,ENERGY TRANSFER LP
1004336.0,110071160981.0,2023.0,Texas Gas Service,1301 S Mopac Expressway,Austin,TX,78746,TRAVIS COUNTY,ONE GAS INC,15 E. 5Th St.,Tulsa,OK,74103,100.0,221210.0,1004336,30.26229,-97.78925,LDC - Direct Emissions,other
1004382.0,110023010178.0,2023.0,Carthage,356 FM 959,CARTHAGE,TX,75633,PANOLA COUNTY,MPLX LP,539 South Main Street,Findlay,OH,45840,100.0,211130.0,1004382,32.167337,-94.424222,Direct Point Emitters,MPLX LP
1004389.0,110056967279.0,2023.0,Javelina,5438 Union Street,Corpus Christi,TX,78407,NUECES COUNTY,Howard Energy Partners LLC,"16211 La Cantera Pkwy, Ste 202",San Antonio,TX,78256,100.0,211130.0,1004389,27.805556,-97.45805,Direct Point Emitters,other
1004400.0,110043797781.0,2023.0,Springridge South Compressor Station,686 Hwy 789,Keatchie,LA,71046,DE SOTO PARISH,THE WILLIAMS COS INC,1 Williams Center,Tulsa,OK,74172,100.0,211120.0,1004400,32.195001,-93.901028,Direct Point Emitters,THE WILLIAMS COS INC
1004425.0,110071160223.0,2023.0,OHL NGLP Hutchinson Plant,1910 SOUTH BROADACRES ROAD,HUTCHINSON,KS,67501,RENO COUNTY,ONEOK INC,100 West Fifth Street,Tulsa,OK,74103,100.0,211130.0,1004425,38.02875,-97.97694,Direct Point Emitters,other
1004429.0,110071160472.0,2023.0,"Peoples Natural Gas Company, LLC",1201 Pitt Street,Pittsburgh,PA,15221,ALLEGHENY COUNTY,ESSENTIAL UTILITIES INC,"375 North Shore Drive, Suite 600",Pittsburgh,PA,15212,100.0,221210.0,1004429,40.44692,-79.88594,LDC - Direct Emissions,other
1004430.0,110000750875.0,2023.0,Siloam Fractionation,2 MarkWest Drive,South Shore,KY,41175,GREENUP COUNTY,MPLX LP,539 South Main Street,Findlay,OH,45840,100.0,211130.0,1004430,38.733056,-82.928333,Direct Point Emitters,MPLX LP
1004450.0,,2023.0,CPS Energy Natural Gas System,145 Navarro,San Antonio,TX,78205,,CITY PUBLIC SERVICES OF SAN ANTONIO TEXAS,500 Mccullough Avenue,San Antonio,TX,78215,100.0,221210.0,1004450,29.42243,-98.49045,LDC - Direct Emissions,other
1004482.0,110071160005.0,2023.0,Spire Missouri West,7500 E. 35th Terrace,KANSAS CITY,MO,64129,JACKSON COUNTY,SPIRE INC,700 Market Street,Saint Louis,MO,63101,100.0,221210.0,1004482,39.06574,-94.59022,LDC - Direct Emissions,other
1004499.0,110043802490.0,2023.0,Chaco Gas Plant,,Bloomfield,NM,87413,SAN JUAN COUNTY,ENTERPRISE PRODUCTS PARTNERS LP,"1100 Louisiana Street, 10Th Floor",Houston,TX,77002,100.0,211130.0,1004499,36.4838,-108.1199,Direct Point Emitters,ENTERPRISE PRODUCTS PARTNERS LP
1004502.0,110022737289.0,2023.0,VAL VERDE TREATER,119 COUNTY ROAD 4900,BLOOMFIELD,NM,87413,SAN JUAN COUNTY,VAL VERDE GAS GATHERING CO LP,1100 Louisiana,Houston,TX,77002,100.0,211130.0,1004502,36.727528,-107.95564,Direct Point Emitters,other
1004524.0,110046247138.0,2023.0,Houston Gas Plant,800 Western Avenue,Washington,PA,15301,WASHINGTON COUNTY,MPLX LP,539 South Main Street,Findlay,OH,45840,100.0,211130.0,1004524,40.25703,-80.25403,Direct Point Emitters,MPLX LP
1004527.0,110071160593.0,2023.0,Consumers Energy Company,One Energy Plaza,Jackson,MI,49201,JACKSON COUNTY,CMS ENERGY CORP,One Energy Plaza Dr,Jackson,MI,49201,100.0,221210.0,1004527,42.315121,-84.375233,LDC - Direct Emissions,other
1004534.0,110063198711.0,2023.0,North DeSoto Central Facility,1679 Gravel Point Rd.,Frierson,LA,71207,DE SOTO PARISH,THE WILLIAMS COS INC,1 Williams Center,Tulsa,OK,74172,100.0,211120.0,1004534,32.240769,-93.654867,Direct Point Emitters,THE WILLIAMS COS INC
1004551.0,110000729196.0,2023.0,Blacks Fork Gas Plant,,GRANGER,WY,82934,SWEETWATER COUNTY,MARATHON PETROLEUM CORP,539 South Main Street,Findlay,OH,45840,100.0,211130.0,1004551,41.554684,-110.048865,Direct Point Emitters,other
1004567.0,110071160216.0,2023.0,PSNC,"800 Gaston Road, Bld A",Gastonia,NC,28056,GASTON COUNTY,DOMINION ENERGY INC,120 Tredegar St,Richmond,VA,23219,100.0,221210.0,1004567,35.227797,-81.108574,LDC - Direct Emissions,other
1004593.0,110040505085.0,2023.0,Coalgate/Tupelo/Stonewall Gas Plant,,Coalgate,OK,74538,COAL COUNTY,TARGA RESOURCES CORP,"811 Louisiana Street, Suite 2100",Houston,TX,77002,60.0,211130.0,1004593,34.586443,-96.287956,Direct Point Emitters,TARGA RESOURCES CORP
1004614.0,110054864036.0,2023.0,Mont Belvieu Fractionator,10319 highway 146 North,Mont Belvieu,TX,77520,CHAMBERS COUNTY,TARGA RESOURCES CORP,"811 Louisiana Street, Suite 2100",Houston,TX,77002,100.0,211130.0,1004614,29.843056,-94.895278,Direct Point Emitters,TARGA RESOURCES CORP
1004619.0,,2023.0,Shilling Gas Plant,,Freer,TX,78537,Webb,ENTERPRISE PRODUCTS PARTNERS LP,"1100 Louisiana Street, 10Th Floor",Houston,TX,77002,100.0,211130.0,1004619,27.942678,-98.870942,Direct Point Emitters,ENTERPRISE PRODUCTS PARTNERS LP
1004620.0,110014325854.0,2023.0,Lake Charles Fractionator,1399 Davison Rd,Sulphur,LA,70665,CALCASIEU PARISH,TARGA RESOURCES CORP,"811 Louisiana Street, Suite 2100",Houston,TX,77002,100.0,211130.0,1004620,30.158611,-93.347778,Direct Point Emitters,TARGA RESOURCES CORP
1004651.0,110058379598.0,2023.0,Signal Hill Petroleum West Unit,1215 E. 29th Street,Signal Hill,CA,90755,LOS ANGELES COUNTY,SIGNAL HILL PETROLEUM INC,2633 Cherry Ave.,Signal Hill,CA,90755,100.0,211120.0,1004651,33.809841,-118.176168,Gathering & Boosting,other
1004654.0,110071161206.0,2023.0,SCE&G Gas Operations,220 Operations Way,Cayce,SC,29033,LEXINGTON COUNTY,DOMINION ENERGY INC,120 Tredegar St,Richmond,VA,23219,100.0,221210.0,1004654,33.957997,-81.04796,LDC - Direct Emissions,other
1004666.0,110000503759.0,2023.0,San Martin Gas Plant,20733 Lamm Road,Elmendorf,TX,78112,BEXAR COUNTY,ENTERPRISE PRODUCTS PARTNERS LP,"1100 Louisiana Street, 10Th Floor",Houston,TX,77002,100.0,211130.0,1004666,29.212292,-98.407127,Direct Point Emitters,ENTERPRISE PRODUCTS PARTNERS LP
1004686.0,110071160362.0,2023.0,Arapaho,,BUTLER,OK,73625,CUSTER COUNTY,MPLX LP,539 South Main Street,Findlay,OH,45840,100.0,211130.0,1004686,35.7481,-99.202,Direct Point Emitters,MPLX LP
1004688.0,110070081898.0,2023.0,Sprague,,Coalgate,OK,74538,COAL COUNTY,MPLX LP,539 South Main Street,Findlay,OH,45840,100.0,486210.0,1004688,34.65138,-96.18033,Direct Point Emitters,MPLX LP
1004703.0,110071162376.0,2023.0,Dominion Energy Ohio - The East Ohio Gas Co (Dist) (Ohio),1201 EAST 55TH STREET,CLEVELAND,OH,44103,CUYAHOGA COUNTY,DOMINION ENERGY INC,120 Tredegar St,Richmond,VA,23219,100.0,221210.0,1004703,41.52706,-81.65199,LDC - Direct Emissions,other
1004704.0,110071159210.0,2023.0,Thompsonville Gas Plant,,Mirando City,TX,78369,JIM HOGG COUNTY,ENTERPRISE PRODUCTS PARTNERS LP,"1100 Louisiana Street, 10Th Floor",Houston,TX,77002,100.0,211130.0,1004704,27.257436,-98.936989,Direct Point Emitters,ENTERPRISE PRODUCTS PARTNERS LP
1004706.0,110043815574.0,2023.0,"Hope Gas, Inc.",179 Innovation Dr,Jane Lew,WV,26378,HARRISON COUNTY,HEARTHSTONE UTILITIES INC,"184 Shuman Blvd, Suite 300",Naperville,IL,60563,100.0,221210.0,1004706,39.28413,-80.299985,LDC - Direct Emissions,other
1004709.0,110039153028.0,2023.0,"Kinder Morgan Altamont LLC Altamont Gas Plant, Altamont, UT",17790 WEST 3750 NORTH,ALTAMONT,UT,84001,DUCHESNE COUNTY,KINDER MORGAN INC,"1001 Louisiana St, Suite 1000",Houston,TX,77002,100.0,211130.0,1004709,40.35932,-110.28605,Direct Point Emitters,KINDER MORGAN INC
1004712.0,110071161809.0,2023.0,"Kinder Morgan Altamont LLC Bluebell Gas Plant, Roosevelt, UT",5000 W 5550 N,ROOSEVELT,UT,84066,DUCHESNE COUNTY,KINDER MORGAN INC,"1001 Louisiana St, Suite 1000",Houston,TX,77002,100.0,211130.0,1004712,40.38154,-110.08625,Direct Point Emitters,KINDER MORGAN INC
1004715.0,110030555316.0,2023.0,ONEOK Bushton Plant,777 Avenue Y,Bushton,KS,67427,RICE COUNTY,ONEOK INC,100 West Fifth Street,Tulsa,OK,74103,100.0,211130.0,1004715,38.52177,-98.351255,Direct Point Emitters,other
1004744.0,110042061292.0,2023.0,Gulf Coast Fractionator,9500 FM 1942,Mont Belvieu,TX,77580,CHAMBERS COUNTY,TARGA RESOURCES CORP,"811 Louisiana Street, Suite 2100",Houston,TX,77002,38.75,211130.0,1004744,29.854291,-94.917719,Direct Point Emitters,PHILLIPS 66
1004794.0,110070081906.0,2023.0,Atmos Energy Corporation - Colorado,5430 LBJ Freeway,Dallas,TX,75240,DALLAS COUNTY,ATMOS ENERGY CORP,5430 Lbj Freeway,Dallas,TX,75240,100.0,221210.0,1004794,32.925488,-96.816137,LDC - Direct Emissions,other
1004822.0,110031262069.0,2023.0,Meeker Gas Plant,27991 County Rd 5,Rifle,CO,81650,RIO BLANCO COUNTY,ENTERPRISE PRODUCTS PARTNERS LP,"1100 Louisiana Street, 10Th Floor",Houston,TX,77002,100.0,211130.0,1004822,39.910727,-108.294316,Direct Point Emitters,ENTERPRISE PRODUCTS PARTNERS LP
1004824.0,110071161491.0,2023.0,Central Treating Facility,,Meeker,CO,81641,RIO BLANCO COUNTY,ENTERPRISE PRODUCTS PARTNERS LP,"1100 Louisiana Street, 10Th Floor",Houston,TX,77002,100.0,211130.0,1004824,39.8338,-108.2957,Direct Point Emitters,ENTERPRISE PRODUCTS PARTNERS LP
1004837.0,110062554409.0,2023.0,Keatchie Gas Plant,317 Marshall Road,Keatchie,LA,71046,DE SOTO PARISH,ENTERPRISE PRODUCTS PARTNERS LP,"1100 Louisiana Street, 10Th Floor",Houston,TX,77002,100.0,211130.0,1004837,32.144387,-93.994456,Direct Point Emitters,ENTERPRISE PRODUCTS PARTNERS LP
1004893.0,110007973933.0,2023.0,Monument Gas Plant,8201 W Hwy 322,Monument,NM,84265,LEA COUNTY,TARGA RESOURCES CORP,"811 Louisiana Street, Suite 2100",Houston,TX,77002,100.0,211130.0,1004893,32.624135,-103.292931,Direct Point Emitters,TARGA RESOURCES CORP
1004905.0,110071160096.0,2023.0,Pacific Coast Energy Company LP,1555 Orcutt Hill Road,Orcutt,CA,93455,SANTA BARBARA COUNTY,PACIFIC COAST ENERGY CO LP,1555 Orcutt Hill Road,Orcutt,CA,93455,100.0,211120.0,1004905,34.836587,-120.389232,Onshore Oil & Gas Prod.,other
1004919.0,110071160729.0,2023.0,Middle Tennessee Natural Gas Utility District,1030 West Broad Street,Smithville,TN,37166,DEKALB COUNTY,MIDDLE TENNESSEE NATURAL GAS UTILITY DISTRICT,1030 West Broad St.,Smithville,TN,37166,100.0,221210.0,1004919,35.965524,-85.849081,LDC - Direct Emissions,other
1004924.0,110043784535.0,2023.0,Elk Basin Gas Plant,37 Country Road 1NG,POWELL,WY,82435,PARK COUNTY,CONTANGO RESOURCES LLC,"717 Texas Ave., Suite 2900",Houston,TX,77002,100.0,211130.0,1004924,44.866702,-108.814934,Direct Point Emitters,other
1004970.0,110064409215.0,2023.0,JAY BUSINESS UNIT-St. Regis Gas Treating Facility-BASIN 210,"1000 Main Street, Suite 2900",Houston,TX,77002,SANTA ROSA COUNTY,MAVERICK NATURAL RESOURCES LLC,"1111 Bagby Street, Suite 1600",Houston,TX,77002,100.0,211120.0,1004970,30.94845,-87.17817,Direct Point Emitters,other
1004977.0,110071161534.0,2023.0,Dominion Energy Questar Gas Company (Dist) (Utah),1140 WEST 200 SOUTH,SALT LAKE CITY,UT,84101,SALT LAKE COUNTY,DOMINION ENERGY INC,120 Tredegar St,Richmond,VA,23219,100.0,221210.0,1004977,40.76498,-111.92547,LDC - Direct Emissions,other
1005002.0,110005149507.0,2023.0,SHOUP GAS PROCESSING AND FRACTIONATION PLANT,802 MCKINZIE ROAD,CORPUS CHRISTI,TX,78410,NUECES COUNTY,ENTERPRISE PRODUCTS PARTNERS LP,"1100 Louisiana Street, 10Th Floor",Houston,TX,77002,100.0,211130.0,1005002,27.79914,-97.57217,Direct Point Emitters,ENTERPRISE PRODUCTS PARTNERS LP
1005029.0,110043788595.0,2023.0,Pioneer Cryogenic Plant,,Opal,WY,83124,LINCOLN COUNTY,ENTERPRISE PRODUCTS PARTNERS LP,"1100 Louisiana Street, 10Th Floor",Houston,TX,77002,100.0,211130.0,1005029,41.781944,-110.332778,Direct Point Emitters,ENTERPRISE PRODUCTS PARTNERS LP
1005031.0,110043788620.0,2023.0,Port Allen Complex,11224 HWY 190,Port Allen,LA,70767,WEST BATON ROUGE PARISH,THE WILLIAMS COS INC,1 Williams Center,Tulsa,OK,74172,31.45,211130.0,1005031,30.52522,-91.38355,Direct Point Emitters,ENTERPRISE PRODUCTS PARTNERS LP
1005045.0,110043790715.0,2023.0,MBI NGLP Mont Belvieu Plant,9900 FM1942,Mont Belvieu,TX,77580,CHAMBERS COUNTY,PHILLIPS 66,2331 Citywest Blvd,Houston,TX,77042,10.0,211130.0,1005045,29.848405,-94.890932,Direct Point Emitters,PHILLIPS 66
1005069.0,110071160339.0,2023.0,Neptune Gas Plant,120 Truckline Road,Centerville,LA,70522,WEST CARROLL PARISH,ENTERPRISE PRODUCTS PARTNERS LP,"1100 Louisiana Street, 10Th Floor",Houston,TX,77002,66.0,211130.0,1005069,32.601591,-91.484882,Direct Point Emitters,ENTERPRISE PRODUCTS PARTNERS LP
1005070.0,110070746932.0,2023.0,Norco Fractionation Plant,15608 Highway 61,Norco,LA,70079,ST. CHARLES PARISH,ENTERPRISE PRODUCTS PARTNERS LP,"1100 Louisiana Street, 10Th Floor",Houston,TX,77002,100.0,211130.0,1005070,30.013859,-90.417231,Direct Point Emitters,ENTERPRISE PRODUCTS PARTNERS LP
1005080.0,110000727900.0,2023.0,Promix Fractionation Facility,6225 HIGHWAY 996,Belle Rose,LA,70341,ASSUMPTION PARISH,ENTERPRISE PRODUCTS PARTNERS LP,"1100 Louisiana Street, 10Th Floor",Houston,TX,77002,50.0,211130.0,1005080,30.010358,-91.106768,Direct Point Emitters,ENTERPRISE PRODUCTS PARTNERS LP
1005084.0,110071160429.0,2023.0,Sonora Gas Plant,,Sonora,TX,76950,SUTTON COUNTY,ENTERPRISE PRODUCTS PARTNERS LP,"1100 Louisiana Street, 10Th Floor",Houston,TX,77002,100.0,211130.0,1005084,30.299814,-100.644769,Direct Point Emitters,ENTERPRISE PRODUCTS PARTNERS LP
1005164.0,110065171502.0,2023.0,"California Resources Elk Hills, LLC - Gas Processing and Power Generation",28590 Highway 119,TUPMAN,CA,93276,KERN COUNTY,CALIFORNIA RESOURCES CORP,"27200 Tourney Road, Suite 200",Santa Clarita,CA,91355,100.0,211130.0,1005164,35.24084,-119.36056,Direct Point Emitters,other
1005181.0,110071160775.0,2023.0,Keystone Gas Plant,,Kermit,TX,79745,WINKLER COUNTY,ENERGY TRANSFER LP,"8111 Westchester Dr, Suite 600",Dallas,TX,75225,100.0,486210.0,1005181,31.946927,-103.043207,Direct Point Emitters,ENERGY TRANSFER LP
1005209.0,110071159194.0,2023.0,SOUTHERN CALIFORNIA GAS CO End User Emissions (LDC),555 WEST 5TH STREET,LOS ANGELES,CA,90013,LOS ANGELES COUNTY,SEMPRA ENERGY ,488 8th Avenue,San Diego,CA,92101,100.0,221210.0,1005209,34.043925,-118.242429,LDC - Direct Emissions,other
1005215.0,110071160778.0,2023.0,Mivida Treater Plant,,Barstow,TX,79719,WARD COUNTY,ENERGY TRANSFER LP,"8111 Westchester Dr, Suite 600",Dallas,TX,75225,100.0,211130.0,1005215,31.5225,-103.465278,Direct Point Emitters,ENERGY TRANSFER LP
1005240.0,110071161294.0,2023.0,"Entergy New Orleans, LLC Gas Business",3700 Tulane Ave,New Orleans,LA,70119,ORLEANS PARISH,ENTERGY CORP,"639 Loyola Ave, Suite 300",New Orleans,LA,70113,100.0,221210.0,1005240,29.979811,-90.079349,LDC - Direct Emissions,other
1005256.0,110071161948.0,2023.0,PACIFIC GAS AND ELECTRIC COMPANY,77 BEALE STREET,SAN FRANCISCO,CA,94105,SAN FRANCISCO COUNTY,PG&E CORP,77 Beale Street,San Francisco,CA,94105,100.0,221210.0,1005256,37.79134,-122.39604,LDC - Direct Emissions,other
1005285.0,110071160149.0,2023.0,Fayetteville Public Utilities,408 College Street West,Fayetteville,TN,37334,LINCOLN COUNTY,CITY OF FAYETTEVILLE TENNESSEE,110 Elk Ave South,Fayetteville,TN,37334,100.0,221210.0,1005285,35.314962,-86.636076,LDC - Direct Emissions,other
1005321.0,110002408305.0,2023.0,CalNRG  Santa Clara Valley Gas Plant,3824 GUIBERSON ROAD-GAS PL,PIRU,CA,93040,VENTURA COUNTY,CALIFORNIA RESOURCES CORP,"27200 Tourney Road, Suite 200",Santa Clarita,CA,91355,100.0,211130.0,1005321,34.388343,-118.796962,Direct Point Emitters,other
1005329.0,110071159223.0,2023.0,Benton Gas System,201 Main Street,Benton,KY,42025,MARSHALL COUNTY,CITY OF BENTON KENTUCKY,1009 Main St.,Benton,KY,42025,100.0,221210.0,1005329,36.85812,-88.35076,LDC - Direct Emissions,other
1005387.0,110043790092.0,2023.0,Puget Sound Energy LDC,10885 NE 4th St,Bellevue,WA,98004,KING COUNTY,PUGET HOLDINGS LLC,Po Box 97034,Bellevue,WA,98009,100.0,221210.0,1005387,47.61373,-122.19453,LDC - Direct Emissions,other
1005388.0,110071159221.0,2023.0,FORT MORGAN CITY OF,710 E Railraod Ave,FORT MORGAN,CO,80701,MORGAN COUNTY,CITY OF FORT MORGAN COLORADO,710 E Railroad Ave,Fort Morgan,CO,80701,100.0,221210.0,1005388,40.248494,-103.79179,LDC - Direct Emissions,other
1005391.0,110071160307.0,2023.0,XTO - Farrar Plant,3784 FM Rd 39,Jewett,TX,75846,LEON COUNTY,EXXON MOBIL CORP,5959 Las Colinas Blvd,Irving,TX,75039,100.0,211130.0,1005391,31.320273,-96.173912,Direct Point Emitters,EXXON MOBIL CORP
1005431.0,110037901134.0,2023.0,KRIPPLE KREEK GAS PLANT,1988 BRIAR CREEK RD,BOWIE,TX,76230,MONTAGUE COUNTY,EOG RESOURCES INC,1111 Bagby Street - Sky Lobby 2,Houston,TX,77002,100.0,211130.0,1005431,33.52713,-97.88261,Direct Point Emitters,EOG RESOURCES INC
1005435.0,110071159463.0,2023.0,Rock Energy Cooperative,2815 Kennedy Rd.,Janesville,WI,53547,ROCK COUNTY,ROCK ENERGY COOPERATIVE,2815 Kennedy Road,Janesville,WI,53545,100.0,221210.0,1005435,42.716023,-89.005927,LDC - Direct Emissions,other
1005446.0,110009555542.0,2023.0,MIDSTREAM ENERGY PARTNERS NORTH COLES LEVEE GAS PLANT,9224 TUPMAN ROAD,TUPMAN,CA,93276,KERN COUNTY,MIDSTREAM ENERGY PARTNERS (USA) LLC,9224 Tupman Road,Tupman,CA,93276,100.0,211130.0,1005446,35.280555,-119.311943,Direct Point Emitters,other
1005451.0,110071159444.0,2023.0,City of Covington,200 W. Washington Ave,Covington,TN,38019,TIPTON COUNTY,CITY OF COVINGTON TENNESSEE,200 W. Washington Ave,Covington,TN,38019,100.0,921120.0,1005451,35.56296,-89.64792,LDC - Direct Emissions,other
1005477.0,110071159904.0,2023.0,Baltimore Gas & Electric Company,1699 Leadenhall Street,Baltimore,MD,21230,BALTIMORE CITY,EXELON CORP,"10 S. Dearborn Street, 48Th Floor",Chicago,IL,60603-2300,100.0,221210.0,1005477,39.271299,-76.618519,LDC - Direct Emissions,other
1005481.0,110071159906.0,2023.0,LIBERTY UTILITIES - MASSACHUSETTS,P.O. Box 911,FALL RIVER,MA,2722,BRISTOL COUNTY,LIBERTY UTILITIES CO,14920 W Camelback Road,Litchfield Park,AZ,85340,100.0,221210.0,1005481,41.701398,-71.155837,LDC - Direct Emissions,other
1005489.0,110071159742.0,2023.0,Madill Plant,10 Miles E. of Madill on Hwy 199,Madill,OK,73446,MARSHALL COUNTY,BCE-MACH III MIDSTREAM HOLDINGS LLC,"14201 Wireless Way, Suite 300",Oklahoma City,OK,73134,50.0,211130.0,1005489,34.084167,-96.59,Direct Point Emitters,other
1005572.0,110071159850.0,2023.0,"Entergy Louisiana, LLC Gas Business",5755 Choctaw Drive,Baton Rouge,LA,70805,EAST BATON ROUGE PARISH,ENTERGY CORP,"639 Loyola Ave, Suite 300",New Orleans,LA,70113,100.0,221210.0,1005572,30.47085,-91.13304,LDC - Direct Emissions,other
1005641.0,110015846094.0,2023.0,LINAM RANCH GAS PLANT,,HOBBS,NM,88240,LEA COUNTY,PHILLIPS 66,2331 Citywest Blvd,Houston,TX,77042,86.8,211130.0,1005641,32.6953,-103.2853,Direct Point Emitters,PHILLIPS 66
1005663.0,110071160628.0,2023.0,National Fuel Gas Distribution Corp - Pennsylvania,1100 State Street,Erie,PA,16501,,NATIONAL FUEL GAS CO,6363 Main Street,Williamsville,NY,14221,100.0,221210.0,1005663,42.96506,-78.71458,LDC - Direct Emissions,other
1005674.0,110071159484.0,2023.0,Southern Connecticut Gas Company,60 Marsh Hill Rd,Orange,CT,6477,NEW HAVEN COUNTY,AVANGRID INC,180 Marsh Hill Road,Orange,CT,06477,100.0,221210.0,1005674,41.25052,-72.9996,LDC - Direct Emissions,other
1005678.0,110043801856.0,2023.0,PLATTEVILLE GAS PLANT,13675 WELD COUNTY ROAD 34,PLATTEVILLE,CO,80651,WELD COUNTY,PHILLIPS 66,2331 Citywest Blvd,Houston,TX,77042,86.8,211130.0,1005678,40.232045,-104.798221,Direct Point Emitters,PHILLIPS 66
1005691.0,110037526157.0,2023.0,Waha Gas Plant,2821 Waha Road,Coyanosa,TX,79730,PECOS COUNTY,ENERGY TRANSFER LP,"8111 Westchester Dr, Suite 600",Dallas,TX,75225,100.0,486210.0,1005691,31.2684,-103.0862,Direct Point Emitters,ENERGY TRANSFER LP
1005693.0,110071161722.0,2023.0,WEST BISTINEAU FACILITY,,Coushatta,LA,71019,RED RIVER PARISH,ENERGY TRANSFER LP,"8111 Westchester Dr, Suite 600",Dallas,TX,75225,100.0,486210.0,1005693,32.2107,-93.4413,Direct Point Emitters,ENERGY TRANSFER LP
1005703.0,110071162003.0,2023.0,"Colorado Natural Gas, Inc.",10825 E. Geddes Avenue,Centennial,CO,80112,JEFFERSON COUNTY,SUMMIT UTILITIES INC,10825 E. Geddes Ave.; Suite 410,Centennial,CO,80112,100.0,221210.0,1005703,39.57454,-105.13351,LDC - Direct Emissions,other
1005723.0,110071159222.0,2023.0,Trussville Utilities,127 Main Street,Trussville,AL,35173,JEFFERSON COUNTY,UTILITIES BOARD OF THE CITY OF TRUSSVILLE ALABAMA,127 Main Street,Trussville,AL,35173,100.0,221210.0,1005723,33.621523,-86.602293,LDC - Direct Emissions,other
1005739.0,110007196694.0,2023.0,SHERHAN GAS PLANT,15150 County Road 9,GRUVER,TX,79040,HANSFORD COUNTY,PHILLIPS 66,2331 Citywest Blvd,Houston,TX,77042,86.8,211130.0,1005739,36.4925,-101.467222,Direct Point Emitters,PHILLIPS 66
1005770.0,110071162242.0,2023.0,AUX SABLE LIQUID PRODUCTS INC,6155 EAST U.S. ROUTE 6,MORRIS,IL,60450,GRUNDY COUNTY,AUX SABLE LIQUID PRODUCTS LP,6155 East U.S. Route 6,Morris,IL,60450,100.0,211130.0,1005770,41.41305,-88.305556,Direct Point Emitters,other
1005771.0,,2023.0,Clarke-Mobile Counties Gas District,2003 College Avenue,Jackson,AL,36545,,CLARKE-MOBILE COUNTIES GAS DISTRICT,2003 College Avenue,Jackson,AL,36545,100.0,221210.0,1005771,31.530954,-87.891408,LDC - Direct Emissions,other
1005779.0,110001310689.0,2023.0,EUNICE NATURAL GAS PROCESSING PLANT,222 REFINERY ROAD,EUNICE,LA,70535,ACADIA PARISH,ENLINK MIDSTREAM LLC,"1722 Routh Street, Suite 1300",Dallas,TX,75201,100.0,211130.0,1005779,30.455267,-92.529956,Direct Point Emitters,other
1005818.0,110031504370.0,2023.0,COWTOWN GAS PROCESSING PLANT,2400 COUNTY ROAD 326,CLEBURNE,TX,76033,HOOD COUNTY,CRESTWOOD EQUITY PARTNERS LP,"811 Main Street, Suite 3400",Houston,TX,77002,100.0,211130.0,1005818,32.33363,-97.68064,Direct Point Emitters,other
1005856.0,110043735152.0,2023.0,GEISMAR FRACTIONATION PLANT,10334 HWY 75 N,GEISMAR,LA,70734,ASCENSION PARISH,ENERGY TRANSFER LP,"8111 Westchester Dr, Suite 600",Dallas,TX,75225,100.0,211130.0,1005856,30.218917,-91.03775,Direct Point Emitters,ENERGY TRANSFER LP
1005857.0,110071159597.0,2023.0,Piedmont Natural Gas - Tennessee,4720 Piedmont Row Drive,Charlotte,NC,28210,MECKLENBURG COUNTY,DUKE ENERGY CORP,525 S Tryon Street,Charlotte,NC,28202,100.0,221210.0,1005857,35.15187,-80.83978,LDC - Direct Emissions,other
1005858.0,110041481456.0,2023.0,DENVER UNIT CO 2 RECOVERY PLANT,1.5 M N OF DENVER CITY ON SH 214,DENVER CITY,TX,79323,YOAKUM COUNTY,DEVON ENERGY CORP,333 West Sheridan Avenue,Oklahoma City,OK,73102,1.0,211120.0,1005858,32.98019,-102.8172,Direct Point Emitters,EXXON MOBIL CORP
1005887.0,110070597614.0,2023.0,ALLIANCE COMPRESSOR STATION,12495 HWY 114,JUSTIN,TX,76247,DENTON COUNTY,CRESTWOOD EQUITY PARTNERS LP,"811 Main Street, Suite 3400",Houston,TX,77002,100.0,211130.0,1005887,33.03512,-97.331434,Direct Point Emitters,other
1005897.0,110071160780.0,2023.0,Jal #3 Gas Plant,,JAL,NM,88252,LEA COUNTY,ENERGY TRANSFER LP,"8111 Westchester Dr, Suite 600",Dallas,TX,75225,100.0,211130.0,1005897,32.174281,-103.174134,Direct Point Emitters,ENERGY TRANSFER LP
1005925.0,110071162239.0,2023.0,CenterPoint Energy Entex (Texas),P.O. Box 0305,Houston,TX,77002,HARRIS COUNTY,CENTERPOINT ENERGY INC,"1111 Louisiana Street, Suite 264",Houston,TX,77002,100.0,221210.0,1005925,29.752554,-95.370401,LDC - Direct Emissions,other
1005963.0,110071160884.0,2023.0,Red Willow Production Co.,14933 Highway 172,Ignacio,CO,81137,LA PLATA COUNTY,SOUTHERN UTE INDIAN TRIBE,356 Ouray Drive,Ignacio,CO,81137,100.0,211130.0,1005963,37.095279,-107.71625,Onshore Oil & Gas Prod.,other
1005965.0,110069533071.0,2023.0,PLAQUEMINE GAS PLANT,60995 DERRICK ROAD,PLAQUEMINE,LA,70764,IBERVILLE PARISH,ENLINK MIDSTREAM LLC,"1722 Routh Street, Suite 1300",Dallas,TX,75201,100.0,211130.0,1005965,30.235504,-91.238382,Direct Point Emitters,other
1005967.0,110071161141.0,2023.0,Spire Alabama,2101 6th Avenue North,BIRMINGHAM,AL,35203,JEFFERSON COUNTY,SPIRE INC,700 Market Street,Saint Louis,MO,63101,100.0,221210.0,1005967,33.520058,-86.807637,LDC - Direct Emissions,other
1006131.0,110010691750.0,2023.0,MEWBOURN GAS PLANT,18455 WELD COUNTY RD 35,GILCREST,CO,80623,WELD COUNTY,PHILLIPS 66,2331 Citywest Blvd,Houston,TX,77042,86.8,211130.0,1006131,40.266583,-104.734944,Direct Point Emitters,PHILLIPS 66
1006148.0,110008998709.0,2023.0,Onshore Treating Facility,6000 DEAKLE ROAD,THEODORE,AL,36582,MOBILE COUNTY,W&T OFFSHORE INC,"5718 Westheimer Road, Suite 700",Houston,TX,77057,100.0,211130.0,1006148,30.4319,-88.1825,Direct Point Emitters,other
1006184.0,110007385409.0,2023.0,OFS GPRP Maysville,,MAYSVILLE,OK,73057,GARVIN COUNTY,ONEOK INC,100 West Fifth Street,Tulsa,OK,74103,100.0,211130.0,1006184,34.8191778,-97.4426583,Direct Point Emitters,other
1006225.0,110071162383.0,2023.0,Tilden Gas Plant,,Tilden,TX,78072,MCMULLEN COUNTY,ENERGY TRANSFER LP,"8111 Westchester Dr, Suite 600",Dallas,TX,75225,100.0,211130.0,1006225,28.409989,-98.530139,Direct Point Emitters,ENERGY TRANSFER LP
1006255.0,110071159295.0,2023.0,LAGRANGE PLANT,,LA GRANGE,TX,78945,FAYETTE COUNTY,ENERGY TRANSFER LP,"8111 Westchester Dr, Suite 600",Dallas,TX,75225,100.0,211130.0,1006255,30.006,-96.8885,Direct Point Emitters,ENERGY TRANSFER LP
1006270.0,110000538473.0,2023.0,XTO - Cotton Valley Gas Plant,1256 Marathon Rd,Cotton Valley,LA,71018,WEBSTER PARISH,EXXON MOBIL CORP,5959 Las Colinas Blvd,Irving,TX,75039,100.0,211130.0,1006270,32.7847,-93.3744,Direct Point Emitters,EXXON MOBIL CORP
1006297.0,110071162237.0,2023.0,"Summit Utilities Inc., Arkansas (Arkansas)",10825 E. Geddes Ave.; Suite 410,Centennial,CO,80112,HARRIS COUNTY,SUMMIT UTILITIES INC,"10825 E. Geddes Ave., Suite 410","Centennial,",CO,80112,100.0,221210.0,1006297,29.75761,-95.36826,LDC - Direct Emissions,other
1006310.0,110020030946.0,2023.0,GREELEY GAS PLANT,3009 WEST 49TH STREET,GREELEY,CO,80634,WELD COUNTY,PHILLIPS 66,2331 Citywest Blvd,Houston,TX,77042,86.8,211130.0,1006310,40.364235,-104.730316,Direct Point Emitters,PHILLIPS 66
1006316.0,110071161264.0,2023.0,OFS GPRP Woodward Gas Plant,,Woodward,OK,73801,WOODWARD COUNTY,ONEOK INC,100 West Fifth Street,Tulsa,OK,74103,100.0,211130.0,1006316,36.4414,-99.4775,Direct Point Emitters,other
1006321.0,110071161380.0,2023.0,HENDERSON GAS PLANT,754 CR 425D,HENDERSON,TX,75654,RUSK COUNTY,M6 Midstream LLC,600 Travis Suite 5500,Houston,TX,77002,100.0,211130.0,1006321,32.158889,-94.878056,Direct Point Emitters,other
1006342.0,110007205880.0,2023.0,INDIAN SPRINGS GAS PLANT,2825 THREE BRIDGE RD,LIVINGSTON,TX,77351,POLK COUNTY,ENTERPRISE PRODUCTS PARTNERS LP,"1100 Louisiana Street, 10Th Floor",Houston,TX,77002,75.0,211130.0,1006342,30.755453,-94.70197,Direct Point Emitters,ENTERPRISE PRODUCTS PARTNERS LP
1006373.0,110028052354.0,2023.0,BRIDGEPORT GAS PROCESSING PLANT,"415 PRIVATE RD, 3502",BRIDGEPORT,TX,76426,WISE COUNTY,ENLINK MIDSTREAM LLC,"1722 Routh Street, Suite 1300",Dallas,TX,75201,100.0,211130.0,1006373,33.195661,-97.8037,Direct Point Emitters,other
1006374.0,110071162366.0,2023.0,MidAmerican Energy Company Local Natural Gas Distribution Company - Illinois,"666 Grand Avenue, Suite 500",Des Moines,IA,50309,POLK COUNTY,BERKSHIRE HATHAWAY INC,"3555 Farnam Street, Suite 1140",Omaha,NE,68131,100.0,221210.0,1006374,41.58758,-93.62616,LDC - Direct Emissions,other
1006375.0,110071161808.0,2023.0,MidAmerican Energy Company Local Natural Gas Distribution Company - Nebraska,"666 Grand Avenue, Suite 500",Des Moines,IA,50309,POLK COUNTY,BERKSHIRE HATHAWAY INC,"3555 Farnam Street, Suite 1140",Omaha,NE,68131,100.0,221210.0,1006375,41.58758,-93.62616,LDC - Direct Emissions,other
1006376.0,110071160179.0,2023.0,MidAmerican Energy Company Local Natural Gas Distribution Company - South Dakota,"666 Grand Avenue, Suite 500",Des Moines,IA,50309,POLK COUNTY,BERKSHIRE HATHAWAY INC,"3555 Farnam Street, Suite 1140",Omaha,NE,68131,100.0,221210.0,1006376,41.58758,-93.62616,LDC - Direct Emissions,other
1006386.0,110056961480.0,2023.0,Mont Belvieu Complex,10207 FM 1942,Mont Belvieu,TX,77580,CHAMBERS COUNTY,ENTERPRISE PRODUCTS PARTNERS LP,"1100 Louisiana Street, 10Th Floor",Houston,TX,77002,100.0,211130.0,1006386,29.857654,-94.910674,Direct Point Emitters,ENTERPRISE PRODUCTS PARTNERS LP
1006387.0,110071161364.0,2023.0,"Black Hills Nebraska Gas, LLC. dba Black Hills Energy",1600 Windhoek Drive,Lincoln,NE,68512,LANCASTER COUNTY,BLACK HILLS CORP,7001 Mt Rushmore Road,Rapid City,SD,57702,100.0,221210.0,1006387,40.7587,-96.69715,LDC - Direct Emissions,other
1006392.0,110070081942.0,2023.0,JEB Gas Plant,8900 FM 1555,RANKIN,TX,79778,UPTON COUNTY,PIONEER NATURAL RESOURCES CO,5205 N. O'Connor Blvd. Ste. 200,Irving,TX,75039,27.0,211130.0,1006392,31.33556,-101.797218,Direct Point Emitters,TARGA RESOURCES CORP
1006398.0,110043969550.0,2023.0,NIPSCO GAS,801 E. 86th Avenue,Merrillville,IN,46410,LAKE COUNTY,NISOURCE INC,801 E 86Th Ave,Merrillville,IN,46410,100.0,221210.0,1006398,41.46339,-87.32624,LDC - Direct Emissions,other
1006407.0,110000502858.0,2023.0,EAST TEXAS GAS PLANT,2628 US 79 NORTH,CARTHAGE,TX,75633,PANOLA COUNTY,PHILLIPS 66,2331 Citywest Blvd,Houston,TX,77042,86.8,211130.0,1006407,32.187876,-94.261875,Direct Point Emitters,PHILLIPS 66
1006483.0,110071159931.0,2023.0,"Scissortail Energy Featherston Station Quinton, OK",17890 E State Hwy 31,Quinton,OK,74561,PITTSBURG COUNTY,KINDER MORGAN INC,"1001 Louisiana St, Suite 1000",Houston,TX,77002,100.0,486210.0,1006483,35.07282,-95.50799,Direct Point Emitters,KINDER MORGAN INC
1006497.0,110071161161.0,2023.0,Cascade Natural Gas Coporation - Washington,8113 W Grandridge Blvd,Kennewick,WA,99336,BENTON COUNTY,MDU RESOURCES GROUP INC,1200 West Century Avenue,Bismarck,ND,58503,100.0,221210.0,1006497,46.21929,-119.22946,LDC - Direct Emissions,other
1006503.0,110071160636.0,2023.0,DTE Energy Michcon LDC,One Energy Plaza,Detroit,MI,48226,WAYNE COUNTY,DTE ENERGY CO,One Energy Plaza,Detroit,MI,48226,100.0,221210.0,1006503,42.328245,-83.049562,LDC - Direct Emissions,other
1006528.0,110071161694.0,2023.0,"Black Hills Colorado Gas, Inc. dba Black Hills Energy",7060 Alegre Street,Fountain,CO,80817,EL PASO COUNTY,BLACK HILLS CORP,7001 Mt Rushmore Road,Rapid City,SD,57702,100.0,221210.0,1006528,38.72966,-104.72517,LDC - Direct Emissions,other
1006564.0,110055372500.0,2023.0,Greylock Energy,500 Corporate Landing,Charleston,WV,25311,KANAWHA COUNTY,GREYLOCK ENERGY,500 Corporate Landing,Charleston,WV,25311,100.0,211120.0,1006564,38.361198,-81.597345,Onshore Oil & Gas Prod.,other
1006569.0,110071161714.0,2023.0,Philadelphia Gas Works - Corporate,800 West Montgomery Avenue,Philadelphia,PA,19122,PHILADELPHIA COUNTY,PHILADELPHIA GAS WORKS,800 West Montgomery Avenue,Philadelphia,PA,19122,100.0,221210.0,1006569,39.97907,-75.14869,LDC - Direct Emissions,other
1006604.0,110043815057.0,2023.0,Black Hills Energy Arkansas LLC.,655 E. Millsap Road Suite 104,Fayetteville,AR,72703,JEFFERSON COUNTY,BLACK HILLS CORP,7001 Mt Rushmore Road,Rapid City,SD,57702,100.0,221210.0,1006604,39.722098,-105.135202,LDC - Direct Emissions,other
1006638.0,110071162171.0,2023.0,Southwest Gas - California,5241 Spring Mountain Road,Las Vegas,NV,89150,CLARK COUNTY,SOUTHWEST GAS HOLDINGS INC,P.O. Box 98510,Las Vegas,NV,89193-8510,100.0,221210.0,1006638,36.12604,-115.21297,LDC - Direct Emissions,other
1006639.0,110071159970.0,2023.0,Southwest Gas - Nevada,5241 Spring Mountain Road,Las vegas,NV,89150,CLARK COUNTY,SOUTHWEST GAS HOLDINGS INC,P.O. Box 98510,Las Vegas,NV,89193-8510,100.0,221210.0,1006639,36.12604,-115.21297,LDC - Direct Emissions,other
1006640.0,110071160910.0,2023.0,Southwest Gas - Arizona,5241 Spring Mountain Road,Las Vegas,NV,89150,CLARK COUNTY,SOUTHWEST GAS HOLDINGS INC,P.O. Box 98510,Las Vegas,NV,89193-8510,100.0,221210.0,1006640,36.12604,-115.21297,LDC - Direct Emissions,other
1006682.0,110071161632.0,2023.0,Robeline Plant,1755 Central Loop,Robeline,LA,71469,NATCHITOCHES PARISH,ENERGY TRANSFER LP,"8111 Westchester Dr, Suite 600",Dallas,TX,75225,100.0,213112.0,1006682,31.658716,-93.324988,Direct Point Emitters,ENERGY TRANSFER LP
1006687.0,110071160692.0,2023.0,Mountaineer Gas Company,501 56th St SE,Charleston,WV,25304,KANAWHA COUNTY,MOUNTAINEER GAS CO,501 56Th St Se,Charleston,WV,25304,100.0,221210.0,1006687,38.383407,-81.67473,LDC - Direct Emissions,other
1006697.0,,2023.0,NGPL Interconnect,Outside of Garrison,Garrison,TX,75946,,M6 Midstream LLC,600 Travis Suite 5500,Houston,TX,77002,100.0,211130.0,1006697,31.826355,-94.492107,Direct Point Emitters,other
1006709.0,110056530801.0,2023.0,GORDON GAS PROCESSING PLANT,1160 Hwy. 193 East,GORDON,TX,76453,PALO PINTO COUNTY,COLT MIDSTREAM LLC,"2950 North Loop West, Suite 1150",Houston,TX,77092,100.0,211130.0,1006709,32.538896,-98.338628,Direct Point Emitters,other
1006730.0,110001225843.0,2023.0,Dubach Cryogenic Plant,201 Oak Street,Dubach,LA,71235,LINCOLN PARISH,ENERGY TRANSFER LP,"8111 Westchester Dr, Suite 600",Dallas,TX,75225,100.0,211130.0,1006730,32.690744,-92.659698,Direct Point Emitters,ENERGY TRANSFER LP
1006750.0,110071160083.0,2023.0,TRC cYPRESS gROUP LLC,805 Blackgold Ct,Taft,CA,93268,KERN COUNTY,TRC CYPRESS GROUP,Po Box 227,Taft,CA,93268,100.0,211120.0,1006750,35.180624,-119.459701,Onshore Oil & Gas Prod.,other
1006762.0,110071160639.0,2023.0,Batesville Water & Gas Utility,7 N. Eastern Ave.,Batesville,IN,47006,RIPLEY COUNTY,BATESVILLE NATURAL GAS,7 N Eastern Ave,Batesville,IN,47006,100.0,221210.0,1006762,39.298528,-85.214528,LDC - Direct Emissions,other
1006770.0,110071162231.0,2023.0,TPIC Basin 220,5850 SAN FELIPE SUITE 250,HOUSTON,TX,77057,HARRIS COUNTY,TEXAS PETROLEUM INVESTMENT CO,"5850 San Felipe Street, Suite 250",Houston,TX,77057,100.0,211120.0,1006770,29.75004,-95.4831,Onshore Oil & Gas Prod.,other
1006771.0,110071160872.0,2023.0,TECO Peoples Gas,702 North Franklin Street,Tampa,FL,33602,HILLSBOROUGH COUNTY,TECO ENERGY INC,702 N Franklin Street,Tampa,FL,33602,100.0,221210.0,1006771,27.95029,-82.4591,LDC - Direct Emissions,other
1006795.0,110043800802.0,2023.0,LONGVIEW GAS PLANT,268 Milam Road,Longview,TX,75603,GREGG COUNTY,M6 Midstream LLC,600 Travis Suite 5500,Houston,TX,77002,100.0,211130.0,1006795,32.410556,-94.701667,Direct Point Emitters,other
1006798.0,110001844274.0,2023.0,SOUTH CHESTER CO2 REMOVAL FACILITY,6250 OLD STATE ROAD,JOHANNESBURG,MI,49751,OTSEGO COUNTY,PHILLIPS 66,2331 Citywest Blvd,Houston,TX,77042,86.8,486210.0,1006798,44.9159,-84.5411,Direct Point Emitters,PHILLIPS 66
1006799.0,110043808984.0,2023.0,Rock Creek Gas Plant,,BORGER,TX,79007,HUTCHINSON COUNTY,IACX ENERGY LLC,"5001 Lbj Freeway, Suite 300",Dallas,TX,75244,100.0,211130.0,1006799,35.6739,-101.4105,Direct Point Emitters,other
1006800.0,110043792884.0,2023.0,GOLDSMITH GAS PLANT,,GOLDSMITH,TX,79741,ECTOR COUNTY,ENBRIDGE (US) INC,5416 Westheimer Court,Houston,TX,77056,13.2,211130.0,1006800,31.9809,-102.6344,Direct Point Emitters,PHILLIPS 66
1006887.0,110043973153.0,2023.0,Atmos Energy Corporation - Tennessee,5430 LBJ Freeway,Dallas,TX,75240,DALLAS COUNTY,ATMOS ENERGY CORP,5430 Lbj Freeway,Dallas,TX,75240,100.0,221210.0,1006887,32.92548,-96.81613,LDC - Direct Emissions,other
1006905.0,110007161533.0,2023.0,DCP MIDSTREAM LP/OKARCHE GAS PLT,6 MI W ON COUNTY LINE RD,OKARCHE,OK,73762,KINGFISHER COUNTY,PHILLIPS 66,2331 Citywest Blvd,Houston,TX,77042,86.8,211130.0,1006905,35.734125,-98.084146,Direct Point Emitters,PHILLIPS 66
1007011.0,110071159281.0,2023.0,City of Rensselaer Gas Utility,706 N. Cullen,Rensselaer,IN,47978,JASPER COUNTY,CITY OF RENSSELAER GAS UTILITY,706 N. Cullen St / Po Box 280,Rensselaer,IN,47978,100.0,221210.0,1007011,40.94284,-87.15426,LDC - Direct Emissions,other
1007020.0,110071159900.0,2023.0,Murray Natural Gas,200 Andrus Dr,Murray,KY,42071,CALLOWAY COUNTY,CITY OF MURRAY KENTUCKY,200 Andrus Drive,Murray,KY,42071,100.0,221210.0,1007020,36.61977,-88.29808,LDC - Direct Emissions,other
1007021.0,110071161140.0,2023.0,Humboldt Utilities,207 South 13th Ave.,Humboldt,TN,38346,GIBSON COUNTY,CITY OF HUMBOLDT CALIFORNIA,1059 West Hawthorne St.,Eureka,CA,95501,100.0,221210.0,1007021,36.029533,-88.808073,LDC - Direct Emissions,other
1007039.0,110071159796.0,2023.0,NW Natural - Oregon,250 SW Taylor Street,Portland,OR,97204,MULTNOMAH COUNTY,NORTHWEST NATURAL HOLDING CO,250 SW Taylor Street,Portland,OR,97204,100.0,221210.0,1007039,45.52471,-122.67244,LDC - Direct Emissions,other
1007104.0,110034242077.0,2023.0,Coyanosa Gas Plant,4259 Mobil Road,Coyanosa,TX,79730,PECOS COUNTY,ENERGY TRANSFER LP,"8111 Westchester Dr, Suite 600",Dallas,TX,75225,100.0,211130.0,1007104,31.190833,-102.989444,Direct Point Emitters,ENERGY TRANSFER LP
1007107.0,110071161440.0,2023.0,Yankee Gas Supply,107 Selden Street,Berlin,CT,6037,HARTFORD COUNTY,EVERSOURCE ENERGY,P.O. Box 270,Hartford,CT,06141,100.0,221210.0,1007107,41.614604,-72.780642,LDC - Direct Emissions,other
1007125.0,110071160774.0,2023.0,SAN DIEGO GAS & ELECTRIC (LDC),8316 CENTURY PARK CT,SAN DIEGO,CA,92123,SAN DIEGO COUNTY,SEMPRA ENERGY INC,488 8th Avenue,San Diego,CA,92101,100.0,221210.0,1007125,32.823398,-117.144081,LDC - Direct Emissions,other
1007304.0,110071161314.0,2023.0,Columbia Gas of Virginia,801 East 86th Avenue,Merrillville,IN,46410,CHESTERFIELD COUNTY,NISOURCE INC,801 E 86Th Ave,Merrillville,IN,46410,100.0,221210.0,1007304,37.36375,-77.39516,LDC - Direct Emissions,other
1007319.0,110071161433.0,2023.0,"Memphis Light, Gas, and Water",220 South Main Street,memphis,TN,38103,SHELBY COUNTY,CITY OF MEMPHIS TENNESSEE,220 South Main,Memphis,TN,38103-3917,100.0,221122.0,1007319,35.139647,-90.055223,LDC - Direct Emissions,other
1007352.0,110062395144.0,2023.0,Lowry Gas Plant,810 Lowry Hwy,Lowry,LA,70549,CAMERON PARISH,TARGA RESOURCES CORP,"811 Louisiana Street, Suite 2100",Houston,TX,77002,100.0,211130.0,1007352,30.006607,-92.782745,Direct Point Emitters,TARGA RESOURCES CORP
1007356.0,110071160012.0,2023.0,"UGI Utilities, Inc.",1 UGI Drive,Denver,PA,17517,,UGI CORP,500 North Gulph Road,King of Prussia,PA,19406,100.0,221210.0,1007356,40.372376,-75.915056,LDC - Direct Emissions,other
1007361.0,110071161925.0,2023.0,Columbia Gas of Kentucky,801 East 86th Avenue,Merrillville,IN,46410,FAYETTE COUNTY,NISOURCE INC,801 E 86Th Ave,Merrillville,IN,46410,100.0,221210.0,1007361,38.08005,-84.53753,LDC - Direct Emissions,other
1007367.0,,2023.0,BPE GPRP Grasslands Gas Plant,,Cartwright,ND,58838,Mckenzie,ONEOK INC,100 West Fifth Street,Tulsa,OK,74103,100.0,211130.0,1007367,47.59043,-104.0005,Direct Point Emitters,other
1007381.0,110071159550.0,2023.0,Minnesota Energy Resources Corporation,2665 145th Street West,Rosemount,MN,55068,DAKOTA COUNTY,WEC Energy Group Inc,231 W Michigan St,Milwaukee,WI,53203,100.0,221210.0,1007381,44.73922,-93.11919,LDC - Direct Emissions,other
1007396.0,110000545517.0,2023.0,Venice Gas Plant,1565 Tidewater Rd,Venice,LA,70091,PLAQUEMINES PARISH,ENTERPRISE PRODUCTS PARTNERS LP,"1100 Louisiana Street, 10th Floor",Houston,TX,77002,13.0,211130.0,1007396,29.23632,-89.38555,Direct Point Emitters,TARGA RESOURCES CORP
1007399.0,110000503018.0,2023.0,Waskom Gas Processing Plant,155 Private Road 1133,Waskom,TX,75692,HARRISON COUNTY,ENERGY TRANSFER LP,"8111 Westchester Dr, Suite 600",Dallas,TX,75225,100.0,211130.0,1007399,32.472494,-94.071155,Direct Point Emitters,ENERGY TRANSFER LP
1007430.0,110043782975.0,2023.0,"NGPL Station 388 Storage, Longview, TX",19935 FM 449,Longview,TX,75605,HARRISON COUNTY,KINDER MORGAN INC,"1001 Louisiana St, Suite 1000",Houston,TX,77002,100.0,486210.0,1007430,32.60055,-94.66629,Direct Point Emitters,KINDER MORGAN INC
1007441.0,110071159283.0,2023.0,Eunice Gas Plant,,Eunice,NM,88231,LEA COUNTY,TARGA RESOURCES CORP,"811 Louisiana Street, Suite 2100",Houston,TX,77002,100.0,211130.0,1007441,32.42615,-103.148564,Direct Point Emitters,TARGA RESOURCES CORP
1007449.0,,2023.0,"TGG PIPELINE, LTD. - HOLLY COMMON POINT #6 FACILITY",140 YEARWOOD RD.,SHREVEPORT,LA,71115,,"CLEARFORK MIDSTREAM, LLC",8451 Hwy. 175,Grand Cane,LA,71032,100.0,211130.0,1007449,32.194099823217,-93.483864617011,Direct Point Emitters,other
1007476.0,,2023.0,Lime Rock Resources Fort Worth Syncline (420),1111 Bagby Street Suite 4600,Houston,TX,77002,,LIME ROCK RESOURCES A LP,1111 Bagby St Suite 4600,Houston,TX,77002,100.0,211120.0,1007476,32.02786,-102.09198,Onshore Oil & Gas Prod.,other
1007479.0,,2023.0,ConocoPhillips Permian (430),925 N. Eldridge Parkway,Houston,TX,77079,,CONOCOPHILLIPS,925 N Eldridge Pkwy,Houston,TX,77079,100.0,211120.0,1007479,32.02786,-102.09198,Onshore Oil & Gas Prod.,other
1007482.0,,2023.0,ConocoPhillips' Williston (395),925 N. Eldridge Parkway,Houston,TX,77079,,CONOCOPHILLIPS,925 N Eldridge Pkwy,Houston,TX,77079,100.0,211120.0,1007482,32.02808,-102.09109,Onshore Oil & Gas Prod.,other
1007484.0,,2023.0,San Juan Basin (580),1111 Travis St,Houston,TX,77002,,HILCORP ENERGY CO,1111 Travis St,Houston,TX,77002,100.0,211130.0,1007484,36.759,-108.16097,Onshore Oil & Gas Prod.,other
1007485.0,,2023.0,"ConocoPhillips Gulf Coast Basin 220, Production",925 N. Eldridge Parkway,Houston,TX,77079,,CONOCOPHILLIPS,925 N Eldridge Pkwy,Houston,TX,77079,100.0,211120.0,1007485,29.78754,-95.61767,Onshore Oil & Gas Prod.,other
1007496.0,110071160883.0,2023.0,ALLISON GAS PLANT,16298 Co. Rd. EE,Allison,TX,79003,WHEELER COUNTY,PRODUCERS MIDSTREAM II LLC,"3500 Maple Ave., Suite 700",Dallas,TX,75219,100.0,211130.0,1007496,35.60785,-100.10148,Direct Point Emitters,other
1007537.0,110071159270.0,2023.0,Halley Plant / Compressor Station,10 Mi. S. of Kermit on St. Hwy 18,Kermit,TX,79745,WINKLER COUNTY,ENERGY TRANSFER LP,"8111 Westchester Dr, Suite 600",Dallas,TX,75225,100.0,211130.0,1007537,31.747395,-102.851484,Direct Point Emitters,ENERGY TRANSFER LP
1007569.0,110071160642.0,2023.0,Connecticut Natural Gas Company,76 Meadow Street,East Hartford,CT,6108,HARTFORD COUNTY,AVANGRID INC,180 Marsh Hill Road,Orange,CT,06477,100.0,221210.0,1007569,41.76135,-72.65664,LDC - Direct Emissions,other
1007572.0,110071160090.0,2023.0,Chattanoga Gas Company,2207 Olan Mills Drive,Chattanooga,TN,37421,HAMILTON COUNTY,THE SOUTHERN CO,"30 Ivan Allen Jr Boulevard Nw, Suite 1407",Atlanta,GA,30308-3008,100.0,221210.0,1007572,35.05026,-85.18439,LDC - Direct Emissions,other
1007602.0,110071160155.0,2023.0,South Jersey Gas Company,One South Jersey Plaza,Folsom,NJ,8037,ATLANTIC COUNTY,SOUTH JERSEY INDUSTRIES INC,1 South Jersey Plaza,Folsom,NJ,08037,100.0,221210.0,1007602,39.643728,-74.757115,LDC - Direct Emissions,other
1007657.0,110010381256.0,2023.0,Hatters Pond Gas Plant,1340 Radcliff Road,Creola,AL,36525,MOBILE COUNTY,HILCORP ENERGY CO,1111 Travis St,Houston,TX,77002,100.0,211130.0,1007657,30.89274,-88.067093,Direct Point Emitters,other
1007777.0,,2023.0,EP Energy E&P 430 Permian Basin,"601 Travis Street, Suite 1400",Houston,TX,77002,,EP ENERGY CORP,"601 Travis Street, Suite 1400",Houston,TX,77002,100.0,211130.0,1007777,29.75816,-95.36782,Onshore Oil & Gas Prod.,other
1007779.0,,2023.0,Tippett Gas Plant,,McCamey,TX,76943,Crockett,ENERGY TRANSFER LP,"8111 Westchester Dr, Suite 600",Dallas,TX,75225,100.0,211130.0,1007779,31.037615,-102.222303,Direct Point Emitters,ENERGY TRANSFER LP
1007807.0,,2023.0,BADAMI DEVELOPMENT FACILITY,"70.151006 N, -147.097267 W",Badami Unit,AK,99734,,SAVANT ALASKA LLC,"188 West Northern Lights Blvd, Suite 510",ANCHORAGE,AK,99503,100.0,211120.0,1007807,70.150997,-147.097369,Onshore Oil & Gas Prod.,other
1007821.0,110018856950.0,2023.0,Cashion Gas Plant,12650 S Council Rd,Cashion,OK,73016,LOGAN COUNTY,UNIT CORP,8200 South Unit Drive,Tulsa,OK,74132,100.0,211130.0,1007821,35.74779,-97.65616,Direct Point Emitters,other
1007828.0,110071161490.0,2023.0,Elk River Public Utility District,217 South Jackson Street,Tullahoma,TN,37388,COFFEE COUNTY,ELK RIVER PUBLIC UTILITY DISTRICT,217 S Jackson St,Tullahoma,TN,37388,100.0,221210.0,1007828,35.360512,-86.210315,LDC - Direct Emissions,other
1007849.0,110071160721.0,2023.0,Washington Gas Light Company (MD),6801 Industrial Road,Springfield,VA,22151,FAIRFAX COUNTY,ALTAGAS SERVICES (US) INC,"1411 3Rd Street, Suite A",Port Huron,MI,48060,100.0,221210.0,1007849,38.79844,-77.1793,LDC - Direct Emissions,other
1007850.0,110071160723.0,2023.0,Washington Gas Light Company (VA),6801 Industrial Rd,Springfield,VA,22151,FAIRFAX COUNTY,ALTAGAS SERVICES (US) INC,"1411 3Rd Street, Suite A",Port Huron,MI,48060,100.0,221210.0,1007850,38.79844,-77.1793,LDC - Direct Emissions,other
1007865.0,110033178175.0,2023.0,Northridge Gas Plant,,Calvin,OK,74531,HUGHES COUNTY,ENLINK MIDSTREAM LLC,"1722 Routh Street, Suite 1300",Dallas,TX,75201,100.0,211130.0,1007865,34.8527,-96.229,Direct Point Emitters,other
1007872.0,110071161198.0,2023.0,Atlanta Gas Light Company,Ten Peachtree Place,Atlanta,GA,30309,FULTON COUNTY,THE SOUTHERN CO,"30 Ivan Allen Jr Boulevard Nw, Suite 1407",Atlanta,GA,30308-3008,100.0,221210.0,1007872,33.797114,-84.380489,LDC - Direct Emissions,other
1007903.0,110071160975.0,2023.0,Velma Gas Plant,,VELMA,OK,73491,STEPHENS COUNTY,TARGA RESOURCES CORP,"811 Louisiana Street, Suite 2100",Houston,TX,77002,100.0,211130.0,1007903,34.4615,-97.6905,Direct Point Emitters,TARGA RESOURCES CORP
1007941.0,110071160499.0,2023.0,Cedar Falls Municipal Gas Utility,1 Utility Parkway,Cedar Falls,IA,50613,BLACK HAWK COUNTY,CEDAR FALLS UTILITIES,1 Utility Parkway,Cedar Falls,IA,50613,100.0,221210.0,1007941,42.52737,-92.44079,LDC - Direct Emissions,other
1008009.0,110043789040.0,2023.0,Harmony Compressor Station,170 North Smyrna Rd.,Searcy,AR,72143,WHITE COUNTY,MERIT ENERGY CO LLC,"13727 Noel Road, Suite 500",Dallas,TX,75240,100.0,211130.0,1008009,35.255486,-91.844772,Direct Point Emitters,other
1008026.0,110071160130.0,2023.0,Ameren Illinois,300 Liberty Street,Peoria,IL,61602,PEORIA COUNTY,AMEREN CORP,1901 Chouteau Avenue,St. Louis,MO,63101,100.0,221210.0,1008026,40.69045,-89.5924,LDC - Direct Emissions,other
1008031.0,110043785286.0,2023.0,Carter Creek,,Evanston,WY,82930,CONTRA COSTA COUNTY,HILCORP ENERGY CO,1111 Travis St,Houston,TX,77002,100.0,211130.0,1008031,41.572,-110.913,Direct Point Emitters,other
1008051.0,110071160416.0,2023.0,"Range Resources - Appalachia, LLC - Basin 160A",3000 Town Center Boulevard,Canonsburg,PA,15317,WASHINGTON COUNTY,RANGE RESOURCES CORP,"100 Throckmorton Street, 12Th Floor",Fort Worth,TX,76102,100.0,211130.0,1008051,36.71,-81.98,Onshore Oil & Gas Prod.,other
1008052.0,,2023.0,DJR Operating - San Juan Basin Oil and Gas Production,1600 Broadway Suite 1960,Denver,CO,80202,,DJR ENERGY LLC,1 Road 3263,Aztec,NM,87410,100.0,211120.0,1008052,32.91415,-96.74484,Onshore Oil & Gas Prod.,other
1008053.0,,2023.0,Own Resources Operating LLC,36695 US-385,Wray,CO,80758,,OWN RESOURCES OPERATING LLC,36695 US-385 PO Box 250,Wray,CO,80758,100.0,211130.0,1008053,45.78413,-108.56738,Onshore Oil & Gas Prod.,other
1008062.0,,2023.0,Belfield Gas Plant,"38th St. SW, 131 St. SW",Belfield,ND,58622,,MARATHON PETROLEUM CORP,539 South Main Street,Findlay,OH,45840,100.0,211130.0,1008062,46.86071,-103.215,Direct Point Emitters,other
1008066.0,,2023.0,"Jordan Development Company, LLC",1503 Garfield Road N.,Traverse City,MI,49696,,JORDAN DEVELOPMENT CO LLC,1503 Garfield Road N,Traverse City,MI,49696,100.0,211130.0,1008066,44.70733,-85.59552,Onshore Oil & Gas Prod.,other
1008078.0,,2023.0,XTO Energy Inc 507 Central Western Overthrust,210 Park Ave Suite 2240,Oklahoma City,OK,73102,,EXXON MOBIL CORP,5959 Las Colinas Blvd.,Irving,TX,75039,100.0,211130.0,1008078,39.55068,-104.86584,Onshore Oil & Gas Prod.,EXXON MOBIL CORP
1008079.0,,2023.0,XTO Energy Inc 260 East Texas,6141 Paluxy drive,Tyler,TX,75703,,EXXON MOBIL CORP,5959 Las Colinas Blvd.,Irving,TX,75039,100.0,211130.0,1008079,32.2556612,-95.3207069,Onshore Oil & Gas Prod.,EXXON MOBIL CORP
1008086.0,,2023.0,"Uinta Wax Operating, LLC","5128 Apache Plume Road, Suite 300",Fort Worth,TX,76109,,CRESCENT POINT ENERGY US CORP,555 17Th Street,Denver,CO,80202,100.0,211120.0,1008086,39.74497,-104.98943,Onshore Oil & Gas Prod.,other
1008087.0,,2023.0,Bayswater Exploration & Production Denver Basin (540) Operations,"730 17th Street, Suite 610",Denver,CO,80202,,BAYSWATER EXPLORATION & PRODUCTION LLC,730 17Th St #500,Denver,CO,80202,100.0,211120.0,1008087,39.7466,-104.99159,Onshore Oil & Gas Prod.,other
1008092.0,,2023.0,EP Energy E&P 220 Gulf Coast Basin,"945 Bunker Hill Road, Ste 1300",Houston,TX,77024,,EP ENERGY CORP,"601 Travis Street, Suite 1400",Houston,TX,77002,100.0,211130.0,1008092,29.75816,-95.36782,Onshore Oil & Gas Prod.,other
1008098.0,110071159426.0,2023.0,City of Mesa,640 N. Mesa Drive,Mesa,AZ,85211,MARICOPA COUNTY,CITY OF MESA ARIZONA,20 E. Main Street,Mesa,AZ,85201,100.0,221210.0,1008098,33.418052,-111.831391,LDC - Direct Emissions,other
1008111.0,,2023.0,ConocoPhillips Alaska Inc - KRU-ALP Fields,ATO 1220 PO Box 100360,Anchorage,AK,99510,,CONOCOPHILLIPS,925 N Eldridge Pkwy,Houston,TX,77079,100.0,211120.0,1008111,70.289666,-149.884468,Onshore Oil & Gas Prod.,other
1008113.0,110037944829.0,2023.0,MurphyE&P-220,9805 Katy Freeway Suite G-200,Houston,TX,77024,HARRIS COUNTY,MURPHY OIL CORP,"9805 Katy Freeway, Suite G200",Houston,TX,77024,100.0,211120.0,1008113,29.7854,-95.66598,Onshore Oil & Gas Prod.,other
1008116.0,,2023.0,XTO Energy Inc 160A Appalachian E Overthrust,190 Thorn Hill Road,Warrendale,PA,15086,,EXXON MOBIL CORP,5959 Las Colinas Blvd.,Irving,TX,75039,100.0,211130.0,1008116,40.67191,-80.11471,Onshore Oil & Gas Prod.,EXXON MOBIL CORP
1008122.0,,2023.0,Kaiser-Francis Oil Company 430 Permian Basin,6733 S. Yale Ave.,Tulsa,OK,74136,,GBK CORP,6733 S. Yale Ave.,Tulsa,OK,74136,100.0,211120.0,1008122,36.06564900189,-95.920372026004,Onshore Oil & Gas Prod.,other
1008130.0,110038365426.0,2023.0,Robinson Lake Gas Plant,4498 Hwy 8,New Town,ND,58763,MOUNTRAIL COUNTY,MARATHON PETROLEUM CORP,539 South Main Street,Findlay,OH,45840,100.0,211130.0,1008130,48.066522,-102.353526,Direct Point Emitters,other
1008132.0,,2023.0,Stanley Booster Station,"Section 14, T155N, R91W",Stanley,ND,58784,,MARATHON PETROLEUM CORP,539 South Main Street,Findlay,OH,45840,100.0,486210.0,1008132,48.3271267,-102.4288062,Direct Point Emitters,other
1008134.0,,2023.0,Ovintiv USA Inc. 350.South Oklahoma Folded Belt,"4 Waterway Square Place, Ste 100",The Woodlands,TX,77380,,OVINTIV INC,370 17Th St #1700,Denver,CO,80202,100.0,211120.0,1008134,30.16047,-95.455938,Onshore Oil & Gas Prod.,other
1008139.0,110022872159.0,2023.0,North Shore CENTRAL WESTERN OVERTHRUST,"13727 NOEL ROAD, SUITE 1200",DALLAS,TX,75240,DALLAS COUNTY,NORTH SHORE E&P,"105 Edgeview Dr., Suite 400",Broomfield,CO,80021,100.0,211130.0,1008139,32.93476,-96.81801,Gathering & Boosting,other
1008141.0,,2023.0,Oxy Permian Basin - 430,6001 Deauville Blvd,Midland,TX,79706,,OCCIDENTAL PETROLEUM CORP,"5 Greenway Plaza, Suite 110",Houston,TX,77046,100.0,211120.0,1008141,32.02994,-102.08741,Onshore Oil & Gas Prod.,other
